Runs/SAC-D_EpSep00-SMA7035-ECC0012-INC98-RAAN270-AOP90-TA0_NadE100-V001/Eclipse-SAC-D_EpSep00-SMA7035-ECC0012-INC98-RAAN270-AOP90-TA0_NadE100-V001.txt

Spacecraft: Sat

Start Time (UTC)            Stop Time (UTC)               Duration (s)    Occ Body        Type        Event Number  Total Duration (s)
11 May 2012 04:14:48.928    11 May 2012 04:15:45.567      56.639182766    Earth           Umbra       1             56.639182766
11 May 2012 05:52:41.931    11 May 2012 05:54:14.424      92.493419617    Earth           Umbra       2             92.493419617
11 May 2012 07:30:41.241    11 May 2012 07:32:36.916      115.67508734    Earth           Umbra       3             115.67508734
11 May 2012 09:08:43.702    11 May 2012 09:10:56.346      132.64383080    Earth           Umbra       4             132.64383080
11 May 2012 10:46:47.772    11 May 2012 10:49:14.334      146.56168713    Earth           Umbra       5             146.56168713
11 May 2012 12:24:51.964    11 May 2012 12:27:32.356      160.39216054    Earth           Umbra       6             160.39216054
11 May 2012 14:02:55.620    11 May 2012 14:05:50.931      175.31151704    Earth           Umbra       7             175.31151704
11 May 2012 15:40:59.489    11 May 2012 15:44:09.147      189.65865809    Earth           Umbra       8             189.65865809
11 May 2012 17:19:04.400    11 May 2012 17:22:26.181      201.78103563    Earth           Umbra       9             201.78103563
11 May 2012 18:57:10.081    11 May 2012 19:00:42.411      212.33004205    Earth           Umbra       10            212.33004205
11 May 2012 20:35:15.974    11 May 2012 20:38:58.460      222.48542507    Earth           Umbra       11            222.48542507
11 May 2012 22:13:22.251    11 May 2012 22:17:14.249      231.99823243    Earth           Umbra       12            231.99823243
11 May 2012 23:51:29.107    11 May 2012 23:55:29.692      240.58573425    Earth           Umbra       13            240.58573425
12 May 2012 01:29:35.975    12 May 2012 01:33:45.274      249.29929435    Earth           Umbra       14            249.29929435
12 May 2012 03:07:42.282    12 May 2012 03:12:01.278      258.99617113    Earth           Umbra       15            258.99617113
12 May 2012 04:45:48.283    12 May 2012 04:50:17.281      268.99863209    Earth           Umbra       16            268.99863209
12 May 2012 06:23:54.598    12 May 2012 06:28:32.775      278.17710650    Earth           Umbra       17            278.17710650
12 May 2012 08:02:01.561    12 May 2012 08:06:47.622      286.06073622    Earth           Umbra       18            286.06073622
12 May 2012 09:40:09.164    12 May 2012 09:45:01.950      292.78524461    Earth           Umbra       19            292.78524461
12 May 2012 11:18:17.036    12 May 2012 11:23:16.184      299.14838055    Earth           Umbra       20            299.14838055
12 May 2012 12:56:24.574    12 May 2012 13:01:30.878      306.30405864    Earth           Umbra       21            306.30405864
12 May 2012 14:34:31.633    12 May 2012 14:39:46.001      314.36762667    Earth           Umbra       22            314.36762667
12 May 2012 16:12:38.757    12 May 2012 16:18:00.897      322.14038424    Earth           Umbra       23            322.14038424
12 May 2012 17:50:46.330    12 May 2012 17:56:15.235      328.90518234    Earth           Umbra       24            328.90518234
12 May 2012 19:28:54.121    12 May 2012 19:34:29.347      335.22602445    Earth           Umbra       25            335.22602445
12 May 2012 21:07:01.952    12 May 2012 21:12:43.474      341.52207447    Earth           Umbra       26            341.52207447
12 May 2012 22:45:10.066    12 May 2012 22:50:57.485      347.41921326    Earth           Umbra       27            347.41921326
13 May 2012 00:23:18.465    13 May 2012 00:29:11.447      352.98199930    Earth           Umbra       28            352.98199930
13 May 2012 02:01:26.651    13 May 2012 02:07:25.685      359.03418590    Earth           Umbra       29            359.03418590
13 May 2012 03:39:34.346    13 May 2012 03:45:40.191      365.84468507    Earth           Umbra       30            365.84468507
13 May 2012 05:17:41.865    13 May 2012 05:23:54.579      372.71385295    Earth           Umbra       31            372.71385295
13 May 2012 06:55:49.645    13 May 2012 07:02:08.580      378.93482102    Earth           Umbra       32            378.93482102
13 May 2012 08:33:57.884    13 May 2012 08:40:22.172      384.28780980    Earth           Umbra       33            384.28780980
13 May 2012 10:12:06.526    13 May 2012 10:18:35.506      388.98037261    Earth           Umbra       34            388.98037261
13 May 2012 11:50:15.216    13 May 2012 11:56:48.966      393.75052188    Earth           Umbra       35            393.75052188
13 May 2012 13:28:23.536    13 May 2012 13:35:02.873      399.33687542    Earth           Umbra       36            399.33687542
13 May 2012 15:06:31.546    13 May 2012 15:13:16.985      405.43894420    Earth           Umbra       37            405.43894420
13 May 2012 16:44:39.703    13 May 2012 16:51:30.789      411.08511089    Earth           Umbra       38            411.08511089
13 May 2012 18:22:48.157    13 May 2012 18:29:44.224      416.06690122    Earth           Umbra       39            416.06690122
13 May 2012 20:00:56.681    13 May 2012 20:07:57.604      420.92282345    Earth           Umbra       40            420.92282345
13 May 2012 21:39:05.270    13 May 2012 21:46:11.001      425.73102289    Earth           Umbra       41            425.73102289
13 May 2012 23:17:14.140    13 May 2012 23:24:24.324      430.18437393    Earth           Umbra       42            430.18437393
14 May 2012 00:55:23.135    14 May 2012 01:02:37.729      434.59389915    Earth           Umbra       43            434.59389915
14 May 2012 02:33:31.816    14 May 2012 02:40:51.413      439.59658054    Earth           Umbra       44            439.59658054
14 May 2012 04:11:40.100    14 May 2012 04:19:05.213      445.11351432    Earth           Umbra       45            445.11351432
14 May 2012 05:49:48.330    14 May 2012 05:57:18.815      450.48477334    Earth           Umbra       46            450.48477334
14 May 2012 07:27:56.831    14 May 2012 07:35:32.089      455.25708608    Earth           Umbra       47            455.25708608
14 May 2012 09:06:05.713    14 May 2012 09:13:45.068      459.35496449    Earth           Umbra       48            459.35496449
14 May 2012 10:44:14.863    14 May 2012 10:51:57.944      463.08073826    Earth           Umbra       49            463.08073826
14 May 2012 12:22:23.926    14 May 2012 12:30:11.064      467.13798781    Earth           Umbra       50            467.13798781
14 May 2012 14:00:32.631    14 May 2012 14:08:24.560      471.92902279    Earth           Umbra       51            471.92902279
14 May 2012 15:38:41.169    14 May 2012 15:46:38.076      476.90687467    Earth           Umbra       52            476.90687467
14 May 2012 17:16:49.901    14 May 2012 17:24:51.258      481.35667011    Earth           Umbra       53            481.35667011
14 May 2012 18:54:58.821    14 May 2012 19:03:04.215      485.39419599    Earth           Umbra       54            485.39419599
14 May 2012 20:33:07.755    14 May 2012 20:41:17.190      489.43419589    Earth           Umbra       55            489.43419589
14 May 2012 22:11:16.814    14 May 2012 22:19:30.163      493.34857569    Earth           Umbra       56            493.34857569
14 May 2012 23:49:26.127    14 May 2012 23:57:43.112      496.98428256    Earth           Umbra       57            496.98428256
15 May 2012 01:27:35.427    15 May 2012 01:35:56.223      500.79641455    Earth           Umbra       58            500.79641455
15 May 2012 03:05:44.364    15 May 2012 03:14:09.560      505.19576016    Earth           Umbra       59            505.19576016
15 May 2012 04:43:53.009    15 May 2012 04:52:22.889      509.87968699    Earth           Umbra       60            509.87968699
15 May 2012 06:22:01.699    15 May 2012 06:30:35.982      514.28372195    Earth           Umbra       61            514.28372195
15 May 2012 08:00:10.666    15 May 2012 08:08:48.798      518.13137415    Earth           Umbra       62            518.13137415
15 May 2012 09:38:19.958    15 May 2012 09:47:01.406      521.44848111    Earth           Umbra       63            521.44848111
15 May 2012 11:16:29.405    15 May 2012 11:25:14.033      524.62863101    Earth           Umbra       64            524.62863101
15 May 2012 12:54:38.671    15 May 2012 13:03:26.967      528.29599004    Earth           Umbra       65            528.29599004
15 May 2012 14:32:47.626    15 May 2012 14:41:40.167      532.54140147    Earth           Umbra       66            532.54140147
15 May 2012 16:10:56.536    15 May 2012 16:19:53.246      536.71037278    Earth           Umbra       67            536.71037278
15 May 2012 17:49:05.644    15 May 2012 17:58:06.018      540.37338569    Earth           Umbra       68            540.37338569
15 May 2012 19:27:14.854    15 May 2012 19:36:18.679      543.82557099    Earth           Umbra       69            543.82557099
15 May 2012 21:05:24.078    15 May 2012 21:14:31.381      547.30270210    Earth           Umbra       70            547.30270210
15 May 2012 22:43:33.481    15 May 2012 22:52:44.068      550.58685750    Earth           Umbra       71            550.58685750
16 May 2012 00:21:43.079    16 May 2012 00:30:56.793      553.71379405    Earth           Umbra       72            553.71379405
16 May 2012 01:59:52.541    16 May 2012 02:09:09.717      557.17620298    Earth           Umbra       73            557.17620298
16 May 2012 03:38:01.641    16 May 2012 03:47:22.784      561.14360596    Earth           Umbra       74            561.14360596
16 May 2012 05:16:10.555    16 May 2012 05:25:35.749      565.19489125    Earth           Umbra       75            565.19489125
16 May 2012 06:54:19.585    16 May 2012 07:03:48.475      568.88916751    Earth           Umbra       76            568.88916751
16 May 2012 08:32:28.894    16 May 2012 08:42:00.969      572.07475863    Earth           Umbra       77            572.07475863
16 May 2012 10:10:38.471    16 May 2012 10:20:13.337      574.86627280    Earth           Umbra       78            574.86627280
16 May 2012 11:48:48.100    16 May 2012 11:58:25.828      577.72813963    Earth           Umbra       79            577.72813963
16 May 2012 13:26:57.490    16 May 2012 13:36:38.635      581.14538781    Earth           Umbra       80            581.14538781
16 May 2012 15:05:06.640    16 May 2012 15:14:51.578      584.93819847    Earth           Umbra       81            584.93819847
16 May 2012 16:43:15.839    16 May 2012 16:53:04.310      588.47033802    Earth           Umbra       82            588.47033802
16 May 2012 18:21:25.210    16 May 2012 18:31:16.798      591.58812845    Earth           Umbra       83            591.58812845
16 May 2012 19:59:34.620    16 May 2012 20:09:29.258      594.63747886    Earth           Umbra       84            594.63747886
16 May 2012 21:37:44.081    16 May 2012 21:47:41.753      597.67120593    Earth           Umbra       85            597.67120593
16 May 2012 23:15:53.753    16 May 2012 23:25:54.239      600.48661921    Earth           Umbra       86            600.48661921
17 May 2012 00:54:03.530    17 May 2012 01:04:06.824      603.29419206    Earth           Umbra       87            603.29419206
17 May 2012 02:32:13.078    17 May 2012 02:42:19.605      606.52658438    Earth           Umbra       88            606.52658438
17 May 2012 04:10:22.301    17 May 2012 04:20:32.434      610.13295186    Earth           Umbra       89            610.13295186
17 May 2012 05:48:31.440    17 May 2012 05:58:45.103      613.66289336    Earth           Umbra       90            613.66289336
17 May 2012 07:26:40.745    17 May 2012 07:36:57.546      616.80077302    Earth           Umbra       91            616.80077302
17 May 2012 09:04:50.320    17 May 2012 09:15:09.805      619.48553799    Earth           Umbra       92            619.48553799
17 May 2012 10:43:00.099    17 May 2012 10:53:22.020      621.92012327    Earth           Umbra       93            621.92012327
17 May 2012 12:21:09.837    17 May 2012 12:31:34.436      624.59989367    Earth           Umbra       94            624.59989367
17 May 2012 13:59:19.313    17 May 2012 14:09:47.132      627.81916967    Earth           Umbra       95            627.81916967
17 May 2012 15:37:28.637    17 May 2012 15:47:59.834      631.19676055    Earth           Umbra       96            631.19676055
17 May 2012 17:15:38.069    17 May 2012 17:26:12.286      634.21639376    Earth           Umbra       97            634.21639376
17 May 2012 18:53:47.626    17 May 2012 19:04:24.575      636.94948313    Earth           Umbra       98            636.94948313
17 May 2012 20:31:57.195    17 May 2012 20:42:36.885      639.69015456    Earth           Umbra       99            639.69015456
17 May 2012 22:10:06.865    17 May 2012 22:20:49.214      642.34894684    Earth           Umbra       100           642.34894684
17 May 2012 23:48:16.744    17 May 2012 23:59:01.562      644.81830172    Earth           Umbra       101           644.81830172
18 May 2012 01:26:26.625    18 May 2012 01:37:14.055      647.43000740    Earth           Umbra       102           647.43000740
18 May 2012 03:04:36.219    18 May 2012 03:15:26.703      650.48381584    Earth           Umbra       103           650.48381584
18 May 2012 04:42:45.554    18 May 2012 04:53:39.313      653.75938145    Earth           Umbra       104           653.75938145
18 May 2012 06:20:54.891    18 May 2012 06:31:51.734      656.84291337    Earth           Umbra       105           656.84291337
18 May 2012 07:59:04.427    18 May 2012 08:10:03.955      659.52794615    Earth           Umbra       106           659.52794615
18 May 2012 09:37:14.213    18 May 2012 09:48:16.040      661.82721450    Earth           Umbra       107           661.82721450
18 May 2012 11:15:24.134    18 May 2012 11:26:28.164      664.02959896    Earth           Umbra       108           664.02959896
18 May 2012 12:53:33.932    18 May 2012 13:04:40.538      666.60553141    Earth           Umbra       109           666.60553141
18 May 2012 14:31:43.483    18 May 2012 14:42:53.114      669.63145828    Earth           Umbra       110           669.63145828
18 May 2012 16:09:52.970    18 May 2012 16:21:05.587      672.61678803    Earth           Umbra       111           672.61678803
18 May 2012 17:48:02.589    18 May 2012 17:59:17.819      675.22954921    Earth           Umbra       112           675.22954921
18 May 2012 19:26:12.281    18 May 2012 19:37:29.967      677.68538544    Earth           Umbra       113           677.68538544
18 May 2012 21:04:21.991    18 May 2012 21:15:42.153      680.16258673    Earth           Umbra       114           680.16258673
18 May 2012 22:42:31.852    18 May 2012 22:53:54.351      682.49914051    Earth           Umbra       115           682.49914051
19 May 2012 00:20:41.882    19 May 2012 00:32:06.607      684.72512296    Earth           Umbra       116           684.72512296
19 May 2012 01:58:51.812    19 May 2012 02:10:19.029      687.21732366    Earth           Umbra       117           687.21732366
19 May 2012 03:37:01.436    19 May 2012 03:48:31.541      690.10507517    Earth           Umbra       118           690.10507517
19 May 2012 05:15:10.882    19 May 2012 05:26:43.948      693.06569517    Earth           Umbra       119           693.06569517
19 May 2012 06:53:20.401    19 May 2012 07:04:56.161      695.76036473    Earth           Umbra       120           695.76036473
19 May 2012 08:31:30.135    19 May 2012 08:43:08.204      698.06932927    Earth           Umbra       121           698.06932927
19 May 2012 10:09:40.090    19 May 2012 10:21:20.166      700.07639851    Earth           Umbra       122           700.07639851
19 May 2012 11:47:50.102    19 May 2012 11:59:32.244      702.14156628    Earth           Umbra       123           702.14156628
19 May 2012 13:25:59.934    19 May 2012 13:37:44.582      704.64845019    Earth           Umbra       124           704.64845019
19 May 2012 15:04:09.560    19 May 2012 15:15:57.022      707.46235347    Earth           Umbra       125           707.46235347
19 May 2012 16:42:19.201    19 May 2012 16:54:09.284      710.08297676    Earth           Umbra       126           710.08297676
19 May 2012 18:20:28.966    19 May 2012 18:32:21.348      712.38204427    Earth           Umbra       127           712.38204427
19 May 2012 19:58:38.764    19 May 2012 20:10:33.391      714.62708213    Earth           Umbra       128           714.62708213
19 May 2012 21:36:48.610    19 May 2012 21:48:45.471      716.86121462    Earth           Umbra       129           716.86121462
19 May 2012 23:14:58.640    19 May 2012 23:26:57.568      718.92816679    Earth           Umbra       130           718.92816679
20 May 2012 00:53:08.769    20 May 2012 01:05:09.766      720.99635708    Earth           Umbra       131           720.99635708
20 May 2012 02:31:18.711    20 May 2012 02:43:22.119      723.40801607    Earth           Umbra       132           723.40801607
20 May 2012 04:09:28.367    20 May 2012 04:21:34.489      726.12208145    Earth           Umbra       133           726.12208145
20 May 2012 05:47:37.928    20 May 2012 05:59:46.709      728.78126192    Earth           Umbra       134           728.78126192
20 May 2012 07:25:47.614    20 May 2012 07:37:58.748      731.13440685    Earth           Umbra       135           731.13440685
20 May 2012 09:03:57.520    20 May 2012 09:16:10.649      733.12980157    Earth           Umbra       136           733.12980157
20 May 2012 10:42:07.604    20 May 2012 10:54:22.531      734.92634213    Earth           Umbra       137           734.92634213
20 May 2012 12:20:17.669    20 May 2012 12:32:34.592      736.92293189    Earth           Umbra       138           736.92293189
20 May 2012 13:58:27.522    20 May 2012 14:10:46.884      739.36206697    Earth           Umbra       139           739.36206697
20 May 2012 15:36:37.233    20 May 2012 15:48:59.173      741.93962887    Earth           Umbra       140           741.93962887
20 May 2012 17:14:47.014    20 May 2012 17:27:11.249      744.23466112    Earth           Umbra       141           744.23466112
20 May 2012 18:52:56.891    20 May 2012 19:05:23.189      746.29844682    Earth           Umbra       142           746.29844682
20 May 2012 20:31:06.781    20 May 2012 20:43:35.149      748.36712211    Earth           Umbra       143           748.36712211
20 May 2012 22:09:16.765    20 May 2012 22:21:47.136      750.37080171    Earth           Umbra       144           750.37080171
20 May 2012 23:47:26.935    20 May 2012 23:59:59.160      752.22546500    Earth           Umbra       145           752.22546500
21 May 2012 01:25:37.117    21 May 2012 01:38:11.319      754.20185239    Earth           Umbra       146           754.20185239
21 May 2012 03:03:47.051    21 May 2012 03:16:23.594      756.54291480    Earth           Umbra       147           756.54291480
21 May 2012 04:41:56.748    21 May 2012 04:54:35.817      759.06855301    Earth           Umbra       148           759.06855301
21 May 2012 06:20:06.429    21 May 2012 06:32:47.871      761.44193772    Earth           Umbra       149           761.44193772
21 May 2012 07:58:16.270    21 May 2012 08:10:59.764      763.49394706    Earth           Umbra       150           763.49394706
21 May 2012 09:36:26.323    21 May 2012 09:49:11.555      765.23186794    Earth           Umbra       151           765.23186794
21 May 2012 11:14:36.502    21 May 2012 11:27:23.393      766.89089038    Earth           Umbra       152           766.89089038
21 May 2012 12:52:46.590    21 May 2012 13:05:35.451      768.86104227    Earth           Umbra       153           768.86104227
21 May 2012 14:30:56.465    21 May 2012 14:43:47.676      771.21037447    Earth           Umbra       154           771.21037447
21 May 2012 16:09:06.271    21 May 2012 16:21:59.805      773.53444624    Earth           Umbra       155           773.53444624
21 May 2012 17:47:16.172    21 May 2012 18:00:11.726      775.55367689    Earth           Umbra       156           775.55367689
21 May 2012 19:25:26.135    21 May 2012 19:38:23.576      777.44167051    Earth           Umbra       157           777.44167051
21 May 2012 21:03:36.117    21 May 2012 21:16:35.463      779.34603965    Earth           Umbra       158           779.34603965
21 May 2012 22:41:46.236    21 May 2012 22:54:47.372      781.13558090    Earth           Umbra       159           781.13558090
22 May 2012 00:19:56.513    22 May 2012 00:32:59.351      782.83785742    Earth           Umbra       160           782.83785742
22 May 2012 01:58:06.708    22 May 2012 02:11:11.474      784.76601880    Earth           Umbra       161           784.76601880
22 May 2012 03:36:16.632    22 May 2012 03:49:23.658      787.02638140    Earth           Umbra       162           787.02638140
22 May 2012 05:14:26.385    22 May 2012 05:27:35.735      789.35023566    Earth           Umbra       163           789.35023566
22 May 2012 06:52:36.187    22 May 2012 07:05:47.643      791.45607536    Earth           Umbra       164           791.45607536
22 May 2012 08:30:46.169    22 May 2012 08:43:59.412      793.24289176    Earth           Umbra       165           793.24289176
22 May 2012 10:08:56.347    22 May 2012 10:22:11.125      794.77781510    Earth           Umbra       166           794.77781510
22 May 2012 11:47:06.587    22 May 2012 12:00:22.949      796.36210324    Earth           Umbra       167           796.36210324
22 May 2012 13:25:16.679    22 May 2012 13:38:35.000      798.32163012    Earth           Umbra       168           798.32163012
22 May 2012 15:03:26.587    22 May 2012 15:16:47.134      800.54687359    Earth           Umbra       169           800.54687359
22 May 2012 16:41:36.491    22 May 2012 16:54:59.106      802.61522450    Earth           Umbra       170           802.61522450
22 May 2012 18:19:46.493    22 May 2012 18:33:10.907      804.41334924    Earth           Umbra       171           804.41334924
22 May 2012 19:57:56.525    22 May 2012 20:11:22.689      806.16371599    Earth           Umbra       172           806.16371599
22 May 2012 21:36:06.605    22 May 2012 21:49:34.509      807.90401974    Earth           Umbra       173           807.90401974
22 May 2012 23:14:16.852    22 May 2012 23:27:46.358      809.50544123    Earth           Umbra       174           809.50544123
23 May 2012 00:52:27.197    23 May 2012 01:05:58.309      811.11203330    Earth           Umbra       175           811.11203330
23 May 2012 02:30:37.379    23 May 2012 02:44:10.391      813.01258783    Earth           Umbra       176           813.01258783
23 May 2012 04:08:47.299    23 May 2012 04:22:22.470      815.17124735    Earth           Umbra       177           815.17124735
23 May 2012 05:46:57.122    23 May 2012 06:00:34.408      817.28576138    Earth           Umbra       178           817.28576138
23 May 2012 07:25:07.044    23 May 2012 07:38:46.188      819.14377974    Earth           Umbra       179           819.14377974
23 May 2012 09:03:17.157    23 May 2012 09:16:57.857      820.69967052    Earth           Umbra       180           820.69967052
23 May 2012 10:41:27.434    23 May 2012 10:55:09.520      822.08625303    Earth           Umbra       181           822.08625303
23 May 2012 12:19:37.705    23 May 2012 12:33:21.350      823.64450844    Earth           Umbra       182           823.64450844
23 May 2012 13:57:47.795    23 May 2012 14:11:33.381      825.58544258    Earth           Umbra       183           825.58544258
23 May 2012 15:35:57.750    23 May 2012 15:49:45.401      827.65127012    Earth           Umbra       184           827.65127012
23 May 2012 17:14:07.752    23 May 2012 17:27:57.231      829.47898224    Earth           Umbra       185           829.47898224
23 May 2012 18:52:17.833    23 May 2012 19:06:08.940      831.10778489    Earth           Umbra       186           831.10778489
23 May 2012 20:30:27.929    23 May 2012 20:44:20.668      832.73844486    Earth           Umbra       187           832.73844486
23 May 2012 22:08:38.114    23 May 2012 22:22:32.427      834.31327161    Earth           Umbra       188           834.31327161
23 May 2012 23:46:48.472    24 May 2012 00:00:44.235      835.76301135    Earth           Umbra       189           835.76301135
24 May 2012 01:24:58.847    24 May 2012 01:38:56.168      837.32072959    Earth           Umbra       190           837.32072959
24 May 2012 03:03:09.002    24 May 2012 03:17:08.196      839.19388693    Earth           Umbra       191           839.19388693
24 May 2012 04:41:18.934    24 May 2012 04:55:20.161      841.22709136    Earth           Umbra       192           841.22709136
24 May 2012 06:19:28.838    24 May 2012 06:33:31.970      843.13158559    Earth           Umbra       193           843.13158559
24 May 2012 07:57:38.878    24 May 2012 08:11:43.640      844.76193910    Earth           Umbra       194           844.76193910
24 May 2012 09:35:49.108    24 May 2012 09:49:55.230      846.12230124    Earth           Umbra       195           846.12230124
24 May 2012 11:13:59.458    24 May 2012 11:28:06.872      847.41423562    Earth           Umbra       196           847.41423562
24 May 2012 12:52:09.737    24 May 2012 13:06:18.714      848.97703927    Earth           Umbra       197           848.97703927
24 May 2012 14:30:19.828    24 May 2012 14:44:30.701      850.87324170    Earth           Umbra       198           850.87324170
24 May 2012 16:08:29.843    24 May 2012 16:22:42.596      852.75289009    Earth           Umbra       199           852.75289009
24 May 2012 17:46:39.934    24 May 2012 18:00:54.303      854.36981987    Earth           Umbra       200           854.36981987
24 May 2012 19:24:50.077    24 May 2012 19:39:05.948      855.87092412    Earth           Umbra       201           855.87092412
24 May 2012 21:03:00.242    24 May 2012 21:17:17.626      857.38426553    Earth           Umbra       202           857.38426553
24 May 2012 22:41:10.536    24 May 2012 22:55:29.334      858.79855296    Earth           Umbra       203           858.79855296
25 May 2012 00:19:20.978    25 May 2012 00:33:41.118      860.13987696    Earth           Umbra       204           860.13987696
25 May 2012 01:57:31.352    25 May 2012 02:11:53.032      861.68032419    Earth           Umbra       205           861.68032419
25 May 2012 03:35:41.478    25 May 2012 03:50:04.989      863.51111698    Earth           Umbra       206           863.51111698
25 May 2012 05:13:51.438    25 May 2012 05:28:16.837      865.39837760    Earth           Umbra       207           865.39837760
25 May 2012 06:52:01.433    25 May 2012 07:06:28.531      867.09794122    Earth           Umbra       208           867.09794122
25 May 2012 08:30:11.586    25 May 2012 08:44:40.108      868.52121478    Earth           Umbra       209           868.52121478
25 May 2012 10:08:21.917    25 May 2012 10:22:51.642      869.72459508    Earth           Umbra       210           869.72459508
25 May 2012 11:46:32.314    25 May 2012 12:01:03.285      870.97101730    Earth           Umbra       211           870.97101730
25 May 2012 13:24:42.586    25 May 2012 13:39:15.134      872.54845952    Earth           Umbra       212           872.54845952
25 May 2012 15:02:52.688    25 May 2012 15:17:27.051      874.36376632    Earth           Umbra       213           874.36376632
25 May 2012 16:41:02.773    25 May 2012 16:55:38.819      876.04541676    Earth           Umbra       214           876.04541676
25 May 2012 18:19:12.940    25 May 2012 18:33:50.430      877.49001954    Earth           Umbra       215           877.49001954
25 May 2012 19:57:23.135    25 May 2012 20:12:02.025      878.89030490    Earth           Umbra       216           878.89030490
25 May 2012 21:35:33.377    25 May 2012 21:50:13.658      880.28043295    Earth           Umbra       217           880.28043295
25 May 2012 23:13:43.777    25 May 2012 23:28:25.327      881.54992070    Earth           Umbra       218           881.54992070
26 May 2012 00:51:54.272    26 May 2012 01:06:37.099      882.82667681    Earth           Umbra       219           882.82667681
26 May 2012 02:30:04.622    26 May 2012 02:44:48.986      884.36379695    Earth           Umbra       220           884.36379695
26 May 2012 04:08:14.728    26 May 2012 04:23:00.856      886.12876172    Earth           Umbra       221           886.12876172
26 May 2012 05:46:24.734    26 May 2012 06:01:12.590      887.85613461    Earth           Umbra       222           887.85613461
26 May 2012 07:24:34.823    26 May 2012 07:39:24.183      889.35969622    Earth           Umbra       223           889.35969622
26 May 2012 09:02:45.084    26 May 2012 09:17:35.682      890.59803220    Earth           Umbra       224           890.59803220
26 May 2012 10:40:55.498    26 May 2012 10:55:47.184      891.68649284    Earth           Umbra       225           891.68649284
26 May 2012 12:19:05.916    26 May 2012 12:33:58.843      892.92702908    Earth           Umbra       226           892.92702908
26 May 2012 13:57:16.174    26 May 2012 14:12:10.684      894.50928953    Earth           Umbra       227           894.50928953
26 May 2012 15:35:26.303    26 May 2012 15:50:22.509      896.20674279    Earth           Umbra       228           896.20674279
26 May 2012 17:13:36.462    26 May 2012 17:28:34.157      897.69568406    Earth           Umbra       229           897.69568406
26 May 2012 18:51:46.690    26 May 2012 19:06:45.697      899.00718054    Earth           Umbra       230           899.00718054
26 May 2012 20:29:56.935    26 May 2012 20:44:57.253      900.31796069    Earth           Umbra       231           900.31796069
26 May 2012 22:08:07.264    26 May 2012 22:23:08.843      901.57868987    Earth           Umbra       232           901.57868987
26 May 2012 23:46:17.758    27 May 2012 00:01:20.488      902.73026121    Earth           Umbra       233           902.73026121
27 May 2012 01:24:28.273    27 May 2012 01:39:32.253      903.97999983    Earth           Umbra       234           903.97999983
27 May 2012 03:02:38.586    27 May 2012 03:17:44.097      905.51098315    Earth           Umbra       235           905.51098315
27 May 2012 04:40:48.687    27 May 2012 04:55:55.872      907.18471835    Earth           Umbra       236           907.18471835
27 May 2012 06:18:58.754    27 May 2012 06:34:07.500      908.74550185    Earth           Umbra       237           908.74550185
27 May 2012 07:57:08.940    27 May 2012 08:12:19.004      910.06428273    Earth           Umbra       238           910.06428273
27 May 2012 09:35:19.299    27 May 2012 09:50:30.442      911.14312671    Earth           Umbra       239           911.14312671
27 May 2012 11:13:29.775    27 May 2012 11:28:41.935      912.16042782    Earth           Umbra       240           912.16042782
27 May 2012 12:51:40.194    27 May 2012 13:06:53.615      913.42039697    Earth           Umbra       241           913.42039697
27 May 2012 14:29:50.442    27 May 2012 14:45:05.423      914.98165416    Earth           Umbra       242           914.98165416
27 May 2012 16:08:00.611    27 May 2012 16:23:17.143      916.53198773    Earth           Umbra       243           916.53198773
27 May 2012 17:46:10.840    27 May 2012 18:01:28.689      917.84849135    Earth           Umbra       244           917.84849135
27 May 2012 19:24:21.117    27 May 2012 19:39:40.177      919.05952130    Earth           Umbra       245           919.05952130
27 May 2012 21:02:31.418    27 May 2012 21:17:51.697      920.27953140    Earth           Umbra       246           920.27953140
27 May 2012 22:40:41.841    27 May 2012 22:56:03.252      921.41114302    Earth           Umbra       247           921.41114302
28 May 2012 00:18:52.406    28 May 2012 00:34:14.886      922.47945723    Earth           Umbra       248           922.47945723
28 May 2012 01:57:02.913    28 May 2012 02:12:26.641      923.72784050    Earth           Umbra       249           923.72784050
28 May 2012 03:35:13.188    28 May 2012 03:50:38.425      925.23691311    Earth           Umbra       250           925.23691311
28 May 2012 05:13:23.303    28 May 2012 05:28:50.100      926.79720973    Earth           Umbra       251           926.79720973
28 May 2012 06:51:33.441    28 May 2012 07:07:01.632      928.19080978    Earth           Umbra       252           928.19080978
28 May 2012 08:29:43.722    28 May 2012 08:45:13.060      929.33789293    Earth           Umbra       253           929.33789293
28 May 2012 10:07:54.169    28 May 2012 10:23:24.457      930.28735437    Earth           Umbra       254           930.28735437
28 May 2012 11:46:04.684    28 May 2012 12:01:35.959      931.27513096    Earth           Umbra       255           931.27513096
28 May 2012 13:24:15.091    28 May 2012 13:39:47.653      932.56242061    Earth           Umbra       256           932.56242061
28 May 2012 15:02:25.337    28 May 2012 15:17:59.405      934.06756106    Earth           Umbra       257           934.06756106
28 May 2012 16:40:35.559    28 May 2012 16:56:11.015      935.45518555    Earth           Umbra       258           935.45518555
28 May 2012 18:18:45.850    28 May 2012 18:34:22.479      936.62899984    Earth           Umbra       259           936.62899984
28 May 2012 19:56:56.169    28 May 2012 20:12:33.929      937.76066081    Earth           Umbra       260           937.76066081
28 May 2012 21:35:06.534    28 May 2012 21:50:45.416      938.88181464    Earth           Umbra       261           938.88181464
28 May 2012 23:13:17.051    28 May 2012 23:28:56.946      939.89502203    Earth           Umbra       262           939.89502203
29 May 2012 00:51:27.660    29 May 2012 01:07:08.577      940.91671798    Earth           Umbra       263           940.91671798
29 May 2012 02:29:38.137    29 May 2012 02:45:20.312      942.17457584    Earth           Umbra       264           942.17457584
29 May 2012 04:07:48.383    29 May 2012 04:23:32.022      943.63845689    Earth           Umbra       265           943.63845689
29 May 2012 05:45:58.529    29 May 2012 06:01:43.598      945.06921979    Earth           Umbra       266           945.06921979
29 May 2012 07:24:08.746    29 May 2012 07:39:55.045      946.29932432    Earth           Umbra       267           946.29932432
29 May 2012 09:02:19.120    29 May 2012 09:18:06.410      947.29040035    Earth           Umbra       268           947.29040035
29 May 2012 10:40:29.640    29 May 2012 10:56:17.785      948.14532147    Earth           Umbra       269           948.14532147
29 May 2012 12:18:40.172    29 May 2012 12:34:29.310      949.13804579    Earth           Umbra       270           949.13804579
29 May 2012 13:56:50.558    29 May 2012 14:12:41.001      950.44284125    Earth           Umbra       271           950.44284125
29 May 2012 15:35:00.819    29 May 2012 15:50:52.675      951.85559416    Earth           Umbra       272           951.85559416
29 May 2012 17:13:11.099    29 May 2012 17:29:04.180      953.08091316    Earth           Umbra       273           953.08091316
29 May 2012 18:51:21.441    29 May 2012 19:07:15.585      954.14404735    Earth           Umbra       274           954.14404735
29 May 2012 20:29:31.801    29 May 2012 20:45:27.005      955.20440075    Earth           Umbra       275           955.20440075
29 May 2012 22:07:42.243    29 May 2012 22:23:38.461      956.21864791    Earth           Umbra       276           956.21864791
29 May 2012 23:45:52.842    30 May 2012 00:01:49.977      957.13500723    Earth           Umbra       277           957.13500723
30 May 2012 01:24:03.466    30 May 2012 01:40:01.608      958.14220982    Earth           Umbra       278           958.14220982
30 May 2012 03:02:13.901    30 May 2012 03:18:13.307      959.40573678    Earth           Umbra       279           959.40573678
30 May 2012 04:40:24.133    30 May 2012 04:56:24.932      960.79933809    Earth           Umbra       280           960.79933809
30 May 2012 06:18:34.326    30 May 2012 06:34:36.417      962.09126743    Earth           Umbra       281           962.09126743
30 May 2012 07:56:44.625    30 May 2012 08:12:47.789      963.16434896    Earth           Umbra       282           963.16434896
30 May 2012 09:34:55.086    30 May 2012 09:50:59.106      964.01914184    Earth           Umbra       283           964.01914184
30 May 2012 11:13:05.661    30 May 2012 11:29:10.479      964.81723962    Earth           Umbra       284           964.81723962
30 May 2012 12:51:16.191    30 May 2012 13:07:22.028      965.83730833    Earth           Umbra       285           965.83730833
30 May 2012 14:29:26.560    30 May 2012 14:45:33.695      967.13507243    Earth           Umbra       286           967.13507243
30 May 2012 16:07:36.850    30 May 2012 16:23:45.276      968.42580893    Earth           Umbra       287           968.42580893
30 May 2012 17:45:47.188    30 May 2012 18:01:56.692      969.50362413    Earth           Umbra       288           969.50362413
30 May 2012 19:23:57.570    30 May 2012 19:40:08.054      970.48338176    Earth           Umbra       289           970.48338176
30 May 2012 21:02:07.977    30 May 2012 21:18:19.447      971.46957008    Earth           Umbra       290           971.46957008
30 May 2012 22:40:18.503    30 May 2012 22:56:30.878      972.37495235    Earth           Umbra       291           972.37495235
31 May 2012 00:18:29.167    31 May 2012 00:34:42.390      973.22390168    Earth           Umbra       292           973.22390168
31 May 2012 01:56:39.778    31 May 2012 02:12:54.017      974.23878817    Earth           Umbra       293           974.23878817
31 May 2012 03:34:50.171    31 May 2012 03:51:05.663      975.49252308    Earth           Umbra       294           975.49252308
31 May 2012 05:13:00.406    31 May 2012 05:29:17.200      976.79355234    Earth           Umbra       295           976.79355234
31 May 2012 06:51:10.658    31 May 2012 07:07:28.601      977.94318998    Earth           Umbra       296           977.94318998
31 May 2012 08:29:21.041    31 May 2012 08:45:39.909      978.86803251    Earth           Umbra       297           978.86803251
31 May 2012 10:07:31.581    31 May 2012 10:23:51.193      979.61148333    Earth           Umbra       298           979.61148333
31 May 2012 11:45:42.191    31 May 2012 12:02:02.581      980.38964403    Earth           Umbra       299           980.38964403
31 May 2012 13:23:52.704    31 May 2012 13:40:14.148      981.44397346    Earth           Umbra       300           981.44397346
31 May 2012 15:02:03.066    31 May 2012 15:18:25.767      982.70122907    Earth           Umbra       301           982.70122907
31 May 2012 16:40:13.397    31 May 2012 16:56:37.249      983.85270392    Earth           Umbra       302           983.85270392
31 May 2012 18:18:23.787    31 May 2012 18:34:48.594      984.80739975    Earth           Umbra       303           984.80739975
31 May 2012 19:56:34.204    31 May 2012 20:12:59.926      985.72143655    Earth           Umbra       304           985.72143655
31 May 2012 21:34:44.669    31 May 2012 21:51:11.294      986.62455697    Earth           Umbra       305           986.62455697
31 May 2012 23:12:55.279    31 May 2012 23:29:22.708      987.42892829    Earth           Umbra       306           987.42892829
01 Jun 2012 00:51:05.981    01 Jun 2012 01:07:34.224      988.24250704    Earth           Umbra       307           988.24250704
01 Jun 2012 02:29:16.560    01 Jun 2012 02:45:45.835      989.27421916    Earth           Umbra       308           989.27421916
01 Jun 2012 04:07:26.918    01 Jun 2012 04:23:57.414      990.49575372    Earth           Umbra       309           990.49575372
01 Jun 2012 05:45:37.175    01 Jun 2012 06:02:08.863      991.68743278    Earth           Umbra       310           991.68743278
01 Jun 2012 07:23:47.495    01 Jun 2012 07:40:20.190      992.69552490    Earth           Umbra       311           992.69552490
01 Jun 2012 09:01:57.961    01 Jun 2012 09:18:31.445      993.48389382    Earth           Umbra       312           993.48389382
01 Jun 2012 10:40:08.568    01 Jun 2012 10:56:42.714      994.14617617    Earth           Umbra       313           994.14617617
01 Jun 2012 12:18:19.192    01 Jun 2012 12:34:54.127      994.93556254    Earth           Umbra       314           994.93556254
01 Jun 2012 13:56:29.682    01 Jun 2012 14:13:05.697      996.01484626    Earth           Umbra       315           996.01484626
01 Jun 2012 15:34:40.049    01 Jun 2012 15:51:17.246      997.19655253    Earth           Umbra       316           997.19655253
01 Jun 2012 17:12:50.428    01 Jun 2012 17:29:28.635      998.20638631    Earth           Umbra       317           998.20638631
01 Jun 2012 18:51:00.862    01 Jun 2012 19:07:39.927      999.06532131    Earth           Umbra       318           999.06532131
01 Jun 2012 20:29:11.315    01 Jun 2012 20:45:51.235      999.91985519    Earth           Umbra       319           999.91985519
01 Jun 2012 22:07:21.849    01 Jun 2012 22:24:02.580      1000.7310784    Earth           Umbra       320           1000.7310784
01 Jun 2012 23:45:32.535    02 Jun 2012 00:02:13.988      1001.4526339    Earth           Umbra       321           1001.4526339
02 Jun 2012 01:23:43.248    02 Jun 2012 01:40:25.508      1002.2594274    Earth           Umbra       322           1002.2594274
02 Jun 2012 03:01:53.783    02 Jun 2012 03:18:37.087      1003.3038890    Earth           Umbra       323           1003.3038890
02 Jun 2012 04:40:04.120    02 Jun 2012 04:56:48.589      1004.4689646    Earth           Umbra       324           1004.4689646
02 Jun 2012 06:18:14.415    02 Jun 2012 06:34:59.956      1005.5407577    Earth           Umbra       325           1005.5407577
02 Jun 2012 07:56:24.808    02 Jun 2012 08:13:11.219      1006.4109073    Earth           Umbra       326           1006.4109073
02 Jun 2012 09:34:35.354    02 Jun 2012 09:51:22.432      1007.0788487    Earth           Umbra       327           1007.0788487
02 Jun 2012 11:12:46.011    02 Jun 2012 11:29:33.704      1007.6936309    Earth           Umbra       328           1007.6936309
02 Jun 2012 12:50:56.631    02 Jun 2012 13:07:45.145      1008.5148077    Earth           Umbra       329           1008.5148077
02 Jun 2012 14:29:07.100    02 Jun 2012 14:45:56.696      1009.5958899    Earth           Umbra       330           1009.5958899
02 Jun 2012 16:07:17.487    02 Jun 2012 16:24:08.160      1010.6727333    Earth           Umbra       331           1010.6727333
02 Jun 2012 17:45:27.916    02 Jun 2012 18:02:19.468      1011.5522453    Earth           Umbra       332           1011.5522453
02 Jun 2012 19:23:38.385    02 Jun 2012 19:40:30.724      1012.3392108    Earth           Umbra       333           1012.3392108
02 Jun 2012 21:01:48.880    02 Jun 2012 21:18:42.011      1013.1306182    Earth           Umbra       334           1013.1306182
02 Jun 2012 22:39:59.491    02 Jun 2012 22:56:53.338      1013.8467677    Earth           Umbra       335           1013.8467677
03 Jun 2012 00:18:10.236    03 Jun 2012 00:35:04.747      1014.5114635    Earth           Umbra       336           1014.5114635
03 Jun 2012 01:56:20.935    03 Jun 2012 02:13:16.266      1015.3313896    Earth           Umbra       337           1015.3313896
03 Jun 2012 03:34:31.424    03 Jun 2012 03:51:27.797      1016.3737600    Earth           Umbra       338           1016.3737600
03 Jun 2012 05:12:41.758    03 Jun 2012 05:29:39.219      1017.4605023    Earth           Umbra       339           1017.4605023
03 Jun 2012 06:50:52.104    03 Jun 2012 07:07:50.511      1018.4073165    Earth           Umbra       340           1018.4073165
03 Jun 2012 08:29:02.572    03 Jun 2012 08:46:01.718      1019.1455703    Earth           Umbra       341           1019.1455703
03 Jun 2012 10:07:13.190    03 Jun 2012 10:24:12.905      1019.7145492    Earth           Umbra       342           1019.7145492
03 Jun 2012 11:45:23.880    03 Jun 2012 12:02:24.195      1020.3154597    Earth           Umbra       343           1020.3154597
03 Jun 2012 13:23:34.482    03 Jun 2012 13:40:35.657      1021.1748847    Earth           Umbra       344           1021.1748847
03 Jun 2012 15:01:44.938    03 Jun 2012 15:18:47.164      1022.2258833    Earth           Umbra       345           1022.2258833
03 Jun 2012 16:39:55.359    03 Jun 2012 16:56:58.539      1023.1798380    Earth           Umbra       346           1023.1798380
03 Jun 2012 18:18:05.832    03 Jun 2012 18:35:09.782      1023.9497961    Earth           Umbra       347           1023.9497961
03 Jun 2012 19:56:16.333    03 Jun 2012 20:13:21.013      1024.6801929    Earth           Umbra       348           1024.6801929
03 Jun 2012 21:34:26.881    03 Jun 2012 21:51:32.280      1025.3992828    Earth           Umbra       349           1025.3992828
03 Jun 2012 23:12:37.570    03 Jun 2012 23:29:43.596      1026.0263945    Earth           Umbra       350           1026.0263945
04 Jun 2012 00:50:48.350    04 Jun 2012 01:07:55.013      1026.6631065    Earth           Umbra       351           1026.6631065
04 Jun 2012 02:28:59.014    04 Jun 2012 02:46:06.518      1027.5043125    Earth           Umbra       352           1027.5043125
04 Jun 2012 04:07:09.465    04 Jun 2012 04:24:17.988      1028.5231636    Earth           Umbra       353           1028.5231636
04 Jun 2012 05:45:19.815    04 Jun 2012 06:02:29.329      1029.5146583    Earth           Umbra       354           1029.5146583
04 Jun 2012 07:23:30.220    04 Jun 2012 07:40:40.556      1030.3353991    Earth           Umbra       355           1030.3353991
04 Jun 2012 09:01:40.765    04 Jun 2012 09:18:51.715      1030.9508970    Earth           Umbra       356           1030.9508970
04 Jun 2012 10:39:51.445    04 Jun 2012 10:57:02.893      1031.4478491    Earth           Umbra       357           1031.4478491
04 Jun 2012 12:18:02.147    04 Jun 2012 12:35:14.211      1032.0637659    Earth           Umbra       358           1032.0637659
04 Jun 2012 13:56:12.725    04 Jun 2012 14:13:25.677      1032.9527472    Earth           Umbra       359           1032.9527472
04 Jun 2012 15:34:23.181    04 Jun 2012 15:51:37.121      1033.9398565    Earth           Umbra       360           1033.9398565
04 Jun 2012 17:12:33.642    04 Jun 2012 17:29:48.409      1034.7667816    Earth           Umbra       361           1034.7667816
04 Jun 2012 18:50:44.155    04 Jun 2012 19:07:59.606      1035.4513315    Earth           Umbra       362           1035.4513315
04 Jun 2012 20:28:54.687    04 Jun 2012 20:46:10.817      1036.1302292    Earth           Umbra       363           1036.1302292
04 Jun 2012 22:07:05.299    04 Jun 2012 22:24:22.067      1036.7678216    Earth           Umbra       364           1036.7678216
04 Jun 2012 23:45:16.059    05 Jun 2012 00:02:33.381      1037.3218020    Earth           Umbra       365           1037.3218020
05 Jun 2012 01:23:26.848    05 Jun 2012 01:40:44.805      1037.9566607    Earth           Umbra       366           1037.9566607
05 Jun 2012 03:01:37.467    05 Jun 2012 03:18:56.282      1038.8150922    Earth           Umbra       367           1038.8150922
05 Jun 2012 04:39:47.893    05 Jun 2012 04:57:07.680      1039.7870597    Earth           Umbra       368           1039.7870597
05 Jun 2012 06:17:58.274    05 Jun 2012 06:35:18.946      1040.6721167    Earth           Umbra       369           1040.6721167
05 Jun 2012 07:56:08.746    05 Jun 2012 08:13:30.114      1041.3684818    Earth           Umbra       370           1041.3684818
05 Jun 2012 09:34:19.364    05 Jun 2012 09:51:41.239      1041.8747278    Earth           Umbra       371           1041.8747278
05 Jun 2012 11:12:30.092    05 Jun 2012 11:29:52.423      1042.3304460    Earth           Umbra       372           1042.3304460
05 Jun 2012 12:50:40.789    05 Jun 2012 13:08:03.770      1042.9807179    Earth           Umbra       373           1042.9807179
05 Jun 2012 14:28:51.343    05 Jun 2012 14:46:15.220      1043.8773397    Earth           Umbra       374           1043.8773397
05 Jun 2012 16:07:01.814    05 Jun 2012 16:24:26.585      1044.7717361    Earth           Umbra       375           1044.7717361
05 Jun 2012 17:45:12.319    05 Jun 2012 18:02:37.799      1045.4805695    Earth           Umbra       376           1045.4805695
05 Jun 2012 19:23:22.863    05 Jun 2012 19:40:48.964      1046.1010398    Earth           Umbra       377           1046.1010398
05 Jun 2012 21:01:33.434    05 Jun 2012 21:19:00.158      1046.7244105    Earth           Umbra       378           1046.7244105
05 Jun 2012 22:39:44.118    05 Jun 2012 22:57:11.394      1047.2765898    Earth           Umbra       379           1047.2765898
06 Jun 2012 00:17:54.933    06 Jun 2012 00:35:22.714      1047.7809288    Earth           Umbra       380           1047.7809288
06 Jun 2012 01:56:05.706    06 Jun 2012 02:13:34.139      1048.4323237    Earth           Umbra       381           1048.4323237
06 Jun 2012 03:34:16.277    06 Jun 2012 03:51:45.571      1049.2938101    Earth           Umbra       382           1049.2938101
06 Jun 2012 05:12:26.697    06 Jun 2012 05:29:56.894      1050.1975409    Earth           Umbra       383           1050.1975409
06 Jun 2012 06:50:37.122    06 Jun 2012 07:08:08.093      1050.9700300    Earth           Umbra       384           1050.9700300
06 Jun 2012 08:28:47.664    06 Jun 2012 08:46:19.210      1051.5461788    Earth           Umbra       385           1051.5461788
06 Jun 2012 10:06:58.350    06 Jun 2012 10:24:30.313      1051.9621653    Earth           Umbra       386           1051.9621653
06 Jun 2012 11:45:09.109    06 Jun 2012 12:02:41.517      1052.4079484    Earth           Umbra       387           1052.4079484
06 Jun 2012 13:23:19.788    06 Jun 2012 13:40:52.886      1053.0988268    Earth           Umbra       388           1053.0988268
06 Jun 2012 15:01:30.325    06 Jun 2012 15:19:04.297      1053.9725864    Earth           Umbra       389           1053.9725864
06 Jun 2012 16:39:40.823    06 Jun 2012 16:57:15.579      1054.7558420    Earth           Umbra       390           1054.7558420
06 Jun 2012 18:17:51.369    06 Jun 2012 18:35:26.733      1055.3647818    Earth           Umbra       391           1055.3647818
06 Jun 2012 19:56:01.941    06 Jun 2012 20:13:37.876      1055.9350095    Earth           Umbra       392           1055.9350095
06 Jun 2012 21:34:12.561    06 Jun 2012 21:51:49.055      1056.4935676    Earth           Umbra       393           1056.4935676
06 Jun 2012 23:12:23.319    06 Jun 2012 23:30:00.284      1056.9651239    Earth           Umbra       394           1056.9651239
07 Jun 2012 00:50:34.168    07 Jun 2012 01:08:11.614      1057.4464392    Earth           Umbra       395           1057.4464392
07 Jun 2012 02:28:44.906    07 Jun 2012 02:46:23.028      1058.1219155    Earth           Umbra       396           1058.1219155
07 Jun 2012 04:06:55.436    07 Jun 2012 04:24:34.402      1058.9659331    Earth           Umbra       397           1058.9659331
07 Jun 2012 05:45:05.866    07 Jun 2012 06:02:45.651      1059.7845677    Earth           Umbra       398           1059.7845677
07 Jun 2012 07:23:16.346    07 Jun 2012 07:40:56.788      1060.4421327    Earth           Umbra       399           1060.4421327
07 Jun 2012 09:01:26.959    07 Jun 2012 09:19:07.864      1060.9053371    Earth           Umbra       400           1060.9053371
07 Jun 2012 10:39:37.704    07 Jun 2012 10:57:18.960      1061.2556558    Earth           Umbra       401           1061.2556558
07 Jun 2012 12:17:48.475    07 Jun 2012 12:35:30.194      1061.7187653    Earth           Umbra       402           1061.7187653
07 Jun 2012 13:55:59.128    07 Jun 2012 14:13:41.570      1062.4421439    Earth           Umbra       403           1062.4421439
07 Jun 2012 15:34:09.661    07 Jun 2012 15:51:52.922      1063.2603082    Earth           Umbra       404           1063.2603082
07 Jun 2012 17:12:20.195    07 Jun 2012 17:30:04.122      1063.9270863    Earth           Umbra       405           1063.9270863
07 Jun 2012 18:50:30.776    07 Jun 2012 19:08:15.234      1064.4579547    Earth           Umbra       406           1064.4579547
07 Jun 2012 20:28:41.378    07 Jun 2012 20:46:26.361      1064.9822333    Earth           Umbra       407           1064.9822333
07 Jun 2012 22:06:52.059    07 Jun 2012 22:24:37.525      1065.4666324    Earth           Umbra       408           1065.4666324
07 Jun 2012 23:45:02.884    08 Jun 2012 00:02:48.756      1065.8718191    Earth           Umbra       409           1065.8718191
08 Jun 2012 01:23:13.741    08 Jun 2012 01:41:00.095      1066.3544979    Earth           Umbra       410           1066.3544979
08 Jun 2012 03:01:24.432    08 Jun 2012 03:19:11.482      1067.0501627    Earth           Umbra       411           1067.0501627
08 Jun 2012 04:39:34.936    08 Jun 2012 04:57:22.790      1067.8541487    Earth           Umbra       412           1067.8541487
08 Jun 2012 06:17:45.392    08 Jun 2012 06:35:33.968      1068.5760965    Earth           Umbra       413           1068.5760965
08 Jun 2012 07:55:55.934    08 Jun 2012 08:13:45.053      1069.1190788    Earth           Umbra       414           1069.1190788
08 Jun 2012 09:34:06.616    08 Jun 2012 09:51:56.097      1069.4809941    Earth           Umbra       415           1069.4809941
08 Jun 2012 11:12:17.408    08 Jun 2012 11:30:07.202      1069.7943429    Earth           Umbra       416           1069.7943429
08 Jun 2012 12:50:28.173    08 Jun 2012 13:08:18.467      1070.2932985    Earth           Umbra       417           1070.2932985
08 Jun 2012 14:28:38.801    08 Jun 2012 14:46:29.829      1071.0283070    Earth           Umbra       418           1071.0283070
08 Jun 2012 16:06:49.344    08 Jun 2012 16:24:41.107      1071.7625246    Earth           Umbra       419           1071.7625246
08 Jun 2012 17:44:59.917    08 Jun 2012 18:02:52.237      1072.3200352    Earth           Umbra       420           1072.3200352
08 Jun 2012 19:23:10.528    08 Jun 2012 19:41:03.320      1072.7923797    Earth           Umbra       421           1072.7923797
08 Jun 2012 21:01:21.166    08 Jun 2012 21:19:14.433      1073.2664465    Earth           Umbra       422           1073.2664465
08 Jun 2012 22:39:31.916    08 Jun 2012 22:57:25.588      1073.6722545    Earth           Umbra       423           1073.6722545
09 Jun 2012 00:17:42.794    09 Jun 2012 00:35:36.827      1074.0327717    Earth           Umbra       424           1074.0327717
09 Jun 2012 01:55:53.634    09 Jun 2012 02:13:48.168      1074.5341573    Earth           Umbra       425           1074.5341573
09 Jun 2012 03:34:04.277    09 Jun 2012 03:51:59.514      1075.2364578    Earth           Umbra       426           1075.2364578
09 Jun 2012 05:12:14.771    09 Jun 2012 05:30:10.750      1075.9795437    Earth           Umbra       427           1075.9795437
09 Jun 2012 06:50:25.267    09 Jun 2012 07:08:21.865      1076.5979396    Earth           Umbra       428           1076.5979396
09 Jun 2012 08:28:35.874    09 Jun 2012 08:46:32.903      1077.0291087    Earth           Umbra       429           1077.0291087
09 Jun 2012 10:06:46.623    09 Jun 2012 10:24:43.929      1077.3069027    Earth           Umbra       430           1077.3069027
09 Jun 2012 11:44:57.444    09 Jun 2012 12:02:55.057      1077.6128893    Earth           Umbra       431           1077.6128893
09 Jun 2012 13:23:08.190    09 Jun 2012 13:41:06.344      1078.1538687    Earth           Umbra       432           1078.1538687
09 Jun 2012 15:01:18.799    09 Jun 2012 15:19:17.670      1078.8711274    Earth           Umbra       433           1078.8711274
09 Jun 2012 16:39:29.366    09 Jun 2012 16:57:28.869      1079.5027210    Earth           Umbra       434           1079.5027210
09 Jun 2012 18:17:39.977    09 Jun 2012 18:35:39.944      1079.9672751    Earth           Umbra       435           1079.9672751
09 Jun 2012 19:55:50.614    09 Jun 2012 20:13:51.008      1080.3937970    Earth           Umbra       436           1080.3937970
09 Jun 2012 21:34:01.299    09 Jun 2012 21:52:02.107      1080.8083312    Earth           Umbra       437           1080.8083312
09 Jun 2012 23:12:12.119    09 Jun 2012 23:30:13.259      1081.1394179    Earth           Umbra       438           1081.1394179
10 Jun 2012 00:50:23.030    10 Jun 2012 01:08:24.510      1081.4802400    Earth           Umbra       439           1081.4802400
10 Jun 2012 02:28:33.834    10 Jun 2012 02:46:35.842      1082.0075317    Earth           Umbra       440           1082.0075317
10 Jun 2012 04:06:44.436    10 Jun 2012 04:24:47.133      1082.6967152    Earth           Umbra       441           1082.6967152
10 Jun 2012 05:44:54.936    10 Jun 2012 06:02:58.299      1083.3621134    Earth           Umbra       442           1083.3621134
10 Jun 2012 07:23:05.484    10 Jun 2012 07:41:09.357      1083.8736589    Earth           Umbra       443           1083.8736589
10 Jun 2012 09:01:16.158    10 Jun 2012 09:19:20.357      1084.1988882    Earth           Umbra       444           1084.1988882
10 Jun 2012 10:39:26.964    10 Jun 2012 10:57:31.379      1084.4154182    Earth           Umbra       445           1084.4154182
10 Jun 2012 12:17:37.797    10 Jun 2012 12:35:42.537      1084.7401395    Earth           Umbra       446           1084.7401395
10 Jun 2012 13:55:48.517    10 Jun 2012 14:13:53.833      1085.3155557    Earth           Umbra       447           1085.3155557
10 Jun 2012 15:33:59.119    10 Jun 2012 15:52:05.103      1085.9831834    Earth           Umbra       448           1085.9831834
10 Jun 2012 17:12:09.719    10 Jun 2012 17:30:16.225      1086.5059319    Earth           Umbra       449           1086.5059319
10 Jun 2012 18:50:20.362    10 Jun 2012 19:08:27.260      1086.8976275    Earth           Umbra       450           1086.8976275
10 Jun 2012 20:28:31.028    10 Jun 2012 20:46:38.310      1087.2820721    Earth           Umbra       451           1087.2820721
10 Jun 2012 22:06:41.771    10 Jun 2012 22:24:49.399      1087.6275915    Earth           Umbra       452           1087.6275915
10 Jun 2012 23:44:52.657    11 Jun 2012 00:03:00.554      1087.8969812    Earth           Umbra       453           1087.8969812
11 Jun 2012 01:23:03.575    11 Jun 2012 01:41:11.816      1088.2412580    Earth           Umbra       454           1088.2412580
11 Jun 2012 03:01:14.333    11 Jun 2012 03:19:23.123      1088.7907719    Earth           Umbra       455           1088.7907719
11 Jun 2012 04:39:24.905    11 Jun 2012 04:57:34.350      1089.4449310    Earth           Umbra       456           1089.4449310
11 Jun 2012 06:17:35.429    11 Jun 2012 06:35:45.450      1090.0207416    Earth           Umbra       457           1090.0207416
11 Jun 2012 07:55:46.034    11 Jun 2012 08:13:56.459      1090.4247336    Earth           Umbra       458           1090.4247336
11 Jun 2012 09:33:56.777    11 Jun 2012 09:52:07.431      1090.6542758    Earth           Umbra       459           1090.6542758
11 Jun 2012 11:12:07.627    11 Jun 2012 11:30:18.464      1090.8366929    Earth           Umbra       460           1090.8366929
11 Jun 2012 12:50:18.455    11 Jun 2012 13:08:29.653      1091.1981103    Earth           Umbra       461           1091.1981103
11 Jun 2012 14:28:29.149    11 Jun 2012 14:46:40.937      1091.7879284    Earth           Umbra       462           1091.7879284
11 Jun 2012 16:06:39.759    11 Jun 2012 16:24:52.137      1092.3779313    Earth           Umbra       463           1092.3779313
