Runs/EjIngEsp_EpDec00-SMA7073-ECC001-INC98.0-RAAN64.0-AOP0-TA0_NadE100-V001/Eclipse-EjIngEsp_EpDec00-SMA7073-ECC001-INC98.0-RAAN64.0-AOP0-TA0_NadE100-V001.txt

Spacecraft: Sat

Start Time (UTC)            Stop Time (UTC)               Duration (s)    Occ Body        Type        Event Number  Total Duration (s)
21 Dec 2023 00:00:00.000    21 Dec 2023 00:22:42.709      1362.7089349    Earth           Umbra       1             1362.7089349
21 Dec 2023 01:27:58.228    21 Dec 2023 02:01:18.280      2000.0521184    Earth           Umbra       2             2000.0521184
21 Dec 2023 03:06:33.915    21 Dec 2023 03:39:53.905      1999.9896838    Earth           Umbra       3             1999.9896838
21 Dec 2023 04:45:09.674    21 Dec 2023 05:18:29.597      1999.9228301    Earth           Umbra       4             1999.9228301
21 Dec 2023 06:23:45.439    21 Dec 2023 06:57:05.283      1999.8446943    Earth           Umbra       5             1999.8446943
21 Dec 2023 08:02:21.128    21 Dec 2023 08:35:40.890      1999.7614057    Earth           Umbra       6             1999.7614057
21 Dec 2023 09:40:56.751    21 Dec 2023 10:14:16.440      1999.6882961    Earth           Umbra       7             1999.6882961
21 Dec 2023 11:19:32.371    21 Dec 2023 11:52:52.004      1999.6338751    Earth           Umbra       8             1999.6338751
21 Dec 2023 12:58:08.023    21 Dec 2023 13:31:27.611      1999.5876646    Earth           Umbra       9             1999.5876646
21 Dec 2023 14:36:43.729    21 Dec 2023 15:10:03.258      1999.5291898    Earth           Umbra       10            1999.5291898
21 Dec 2023 16:15:19.491    21 Dec 2023 16:48:38.944      1999.4526462    Earth           Umbra       11            1999.4526462
21 Dec 2023 17:53:55.265    21 Dec 2023 18:27:14.639      1999.3742466    Earth           Umbra       12            1999.3742466
21 Dec 2023 19:32:30.985    21 Dec 2023 20:05:50.294      1999.3090196    Earth           Umbra       13            1999.3090196
21 Dec 2023 21:11:06.644    21 Dec 2023 21:44:25.895      1999.2515318    Earth           Umbra       14            1999.2515318
21 Dec 2023 22:49:42.274    21 Dec 2023 23:23:01.463      1999.1889350    Earth           Umbra       15            1999.1889350
22 Dec 2023 00:28:17.896    22 Dec 2023 01:01:37.017      1999.1212453    Earth           Umbra       16            1999.1212453
22 Dec 2023 02:06:53.538    22 Dec 2023 02:40:12.595      1999.0562138    Earth           Umbra       17            1999.0562138
22 Dec 2023 03:45:29.248    22 Dec 2023 04:18:48.240      1998.9925307    Earth           Umbra       18            1998.9925307
22 Dec 2023 05:24:05.012    22 Dec 2023 05:57:23.933      1998.9207378    Earth           Umbra       19            1998.9207378
22 Dec 2023 07:02:40.744    22 Dec 2023 07:35:59.582      1998.8382882    Earth           Umbra       20            1998.8382882
22 Dec 2023 08:41:16.392    22 Dec 2023 09:14:35.149      1998.7562666    Earth           Umbra       21            1998.7562666
22 Dec 2023 10:19:51.999    22 Dec 2023 10:53:10.688      1998.6895324    Earth           Umbra       22            1998.6895324
22 Dec 2023 11:58:27.620    22 Dec 2023 12:31:46.260      1998.6397662    Earth           Umbra       23            1998.6397662
22 Dec 2023 13:37:03.283    22 Dec 2023 14:10:21.873      1998.5900667    Earth           Umbra       24            1998.5900667
22 Dec 2023 15:15:39.004    22 Dec 2023 15:48:57.527      1998.5228371    Earth           Umbra       25            1998.5228371
22 Dec 2023 16:54:14.771    22 Dec 2023 17:27:33.213      1998.4420502    Earth           Umbra       26            1998.4420502
22 Dec 2023 18:32:50.521    22 Dec 2023 19:06:08.888      1998.3672172    Earth           Umbra       27            1998.3672172
22 Dec 2023 20:11:26.206    22 Dec 2023 20:44:44.512      1998.3059352    Earth           Umbra       28            1998.3059352
22 Dec 2023 21:50:01.841    22 Dec 2023 22:23:20.087      1998.2467649    Earth           Umbra       29            1998.2467649
22 Dec 2023 23:28:37.457    23 Dec 2023 00:01:55.638      1998.1805116    Earth           Umbra       30            1998.1805116
23 Dec 2023 01:07:13.074    23 Dec 2023 01:40:31.186      1998.1123240    Earth           Umbra       31            1998.1123240
23 Dec 2023 02:45:48.729    23 Dec 2023 03:19:06.777      1998.0479073    Earth           Umbra       32            1998.0479073
23 Dec 2023 04:24:24.459    23 Dec 2023 04:57:42.440      1997.9814066    Earth           Umbra       33            1997.9814066
23 Dec 2023 06:03:00.213    23 Dec 2023 06:36:18.118      1997.9042332    Earth           Umbra       34            1997.9042332
23 Dec 2023 07:41:35.904    23 Dec 2023 08:14:53.723      1997.8192712    Earth           Umbra       35            1997.8192712
23 Dec 2023 09:20:11.519    23 Dec 2023 09:53:29.260      1997.7409998    Earth           Umbra       36            1997.7409998
23 Dec 2023 10:58:47.118    23 Dec 2023 11:32:04.799      1997.6810342    Earth           Umbra       37            1997.6810342
23 Dec 2023 12:37:22.745    23 Dec 2023 13:10:40.378      1997.6331627    Earth           Umbra       38            1997.6331627
23 Dec 2023 14:15:58.421    23 Dec 2023 14:49:15.998      1997.5769602    Earth           Umbra       39            1997.5769602
23 Dec 2023 15:54:34.157    23 Dec 2023 16:27:51.658      1997.5016375    Earth           Umbra       40            1997.5016375
23 Dec 2023 17:33:09.917    23 Dec 2023 18:06:27.337      1997.4200528    Earth           Umbra       41            1997.4200528
23 Dec 2023 19:11:45.635    23 Dec 2023 19:45:02.985      1997.3501849    Earth           Umbra       42            1997.3501849
23 Dec 2023 20:50:21.287    23 Dec 2023 21:23:38.578      1997.2908696    Earth           Umbra       43            1997.2908696
23 Dec 2023 22:28:56.904    23 Dec 2023 23:02:14.132      1997.2284315    Earth           Umbra       44            1997.2284315
24 Dec 2023 00:07:32.509    24 Dec 2023 00:40:49.669      1997.1595024    Earth           Umbra       45            1997.1595024
24 Dec 2023 01:46:08.126    24 Dec 2023 02:19:25.218      1997.0919073    Earth           Umbra       46            1997.0919073
24 Dec 2023 03:24:43.802    24 Dec 2023 03:58:00.829      1997.0271738    Earth           Umbra       47            1997.0271738
24 Dec 2023 05:03:19.543    24 Dec 2023 05:36:36.500      1996.9564229    Earth           Umbra       48            1996.9564229
24 Dec 2023 06:41:55.272    24 Dec 2023 07:15:12.146      1996.8743221    Earth           Umbra       49            1996.8743221
24 Dec 2023 08:20:30.920    24 Dec 2023 08:53:47.709      1996.7892183    Earth           Umbra       50            1996.7892183
24 Dec 2023 09:59:06.512    24 Dec 2023 10:32:23.229      1996.7166893    Earth           Umbra       51            1996.7166893
24 Dec 2023 11:37:42.111    24 Dec 2023 12:10:58.773      1996.6625792    Earth           Umbra       52            1996.6625792
24 Dec 2023 13:16:17.746    24 Dec 2023 13:49:34.360      1996.6131927    Earth           Umbra       53            1996.6131927
24 Dec 2023 14:54:53.438    24 Dec 2023 15:28:09.986      1996.5486028    Earth           Umbra       54            1996.5486028
24 Dec 2023 16:33:29.182    24 Dec 2023 17:06:45.650      1996.4674171    Earth           Umbra       55            1996.4674171
24 Dec 2023 18:12:04.924    24 Dec 2023 18:45:21.313      1996.3882464    Earth           Umbra       56            1996.3882464
24 Dec 2023 19:50:40.606    24 Dec 2023 20:23:56.929      1996.3232020    Earth           Umbra       57            1996.3232020
24 Dec 2023 21:29:16.231    24 Dec 2023 22:02:32.494      1996.2634737    Earth           Umbra       58            1996.2634737
24 Dec 2023 23:07:51.833    24 Dec 2023 23:41:08.030      1996.1972242    Earth           Umbra       59            1996.1972242
25 Dec 2023 00:46:27.430    25 Dec 2023 01:19:43.557      1996.1270787    Earth           Umbra       60            1996.1270787
25 Dec 2023 02:25:03.056    25 Dec 2023 02:58:19.116      1996.0604350    Earth           Umbra       61            1996.0604350
25 Dec 2023 04:03:38.753    25 Dec 2023 04:36:54.747      1995.9939259    Earth           Umbra       62            1995.9939259
25 Dec 2023 05:42:14.493    25 Dec 2023 06:15:30.411      1995.9180327    Earth           Umbra       63            1995.9180327
25 Dec 2023 07:20:50.185    25 Dec 2023 07:54:06.017      1995.8323527    Earth           Umbra       64            1995.8323527
25 Dec 2023 08:59:25.795    25 Dec 2023 09:32:41.544      1995.7496894    Earth           Umbra       65            1995.7496894
25 Dec 2023 10:38:01.375    25 Dec 2023 11:11:17.059      1995.6839817    Earth           Umbra       66            1995.6839817
25 Dec 2023 12:16:36.977    25 Dec 2023 12:49:52.610      1995.6335404    Earth           Umbra       67            1995.6335404
25 Dec 2023 13:55:12.624    25 Dec 2023 14:28:28.203      1995.5792533    Earth           Umbra       68            1995.5792533
25 Dec 2023 15:33:48.331    25 Dec 2023 16:07:03.837      1995.5059982    Earth           Umbra       69            1995.5059982
25 Dec 2023 17:12:24.075    25 Dec 2023 17:45:39.497      1995.4222240    Earth           Umbra       70            1995.4222240
25 Dec 2023 18:50:59.788    25 Dec 2023 19:24:15.136      1995.3476736    Earth           Umbra       71            1995.3476736
25 Dec 2023 20:29:35.435    25 Dec 2023 21:02:50.721      1995.2859550    Earth           Umbra       72            1995.2859550
25 Dec 2023 22:08:11.039    25 Dec 2023 22:41:26.263      1995.2237584    Earth           Umbra       73            1995.2237584
25 Dec 2023 23:46:46.628    26 Dec 2023 00:20:01.783      1995.1542261    Earth           Umbra       74            1995.1542261
26 Dec 2023 01:25:22.222    26 Dec 2023 01:58:37.306      1995.0842525    Earth           Umbra       75            1995.0842525
26 Dec 2023 03:03:57.865    26 Dec 2023 03:37:12.883      1995.0180699    Earth           Umbra       76            1995.0180699
26 Dec 2023 04:42:33.580    26 Dec 2023 05:15:48.528      1994.9482114    Earth           Umbra       77            1994.9482114
26 Dec 2023 06:21:09.302    26 Dec 2023 06:54:24.169      1994.8670916    Earth           Umbra       78            1994.8670916
26 Dec 2023 07:59:44.951    26 Dec 2023 08:32:59.730      1994.7799206    Earth           Umbra       79            1994.7799206
26 Dec 2023 09:38:20.532    26 Dec 2023 10:11:35.234      1994.7020544    Earth           Umbra       80            1994.7020544
26 Dec 2023 11:16:56.108    26 Dec 2023 11:50:10.751      1994.6430232    Earth           Umbra       81            1994.6430232
26 Dec 2023 12:55:31.717    26 Dec 2023 13:28:46.310      1994.5931008    Earth           Umbra       82            1994.5931008
26 Dec 2023 14:34:07.378    26 Dec 2023 15:07:21.910      1994.5312983    Earth           Umbra       83            1994.5312983
26 Dec 2023 16:12:43.097    26 Dec 2023 16:45:57.548      1994.4508267    Earth           Umbra       84            1994.4508267
26 Dec 2023 17:51:18.829    26 Dec 2023 18:24:33.197      1994.3679798    Earth           Umbra       85            1994.3679798
26 Dec 2023 19:29:54.508    26 Dec 2023 20:03:08.806      1994.2987694    Earth           Umbra       86            1994.2987694
26 Dec 2023 21:08:30.124    26 Dec 2023 21:41:44.362      1994.2380736    Earth           Umbra       87            1994.2380736
26 Dec 2023 22:47:05.711    26 Dec 2023 23:20:19.884      1994.1722446    Earth           Umbra       88            1994.1722446
27 Dec 2023 00:25:41.291    27 Dec 2023 00:58:55.391      1994.1007192    Earth           Umbra       89            1994.1007192
27 Dec 2023 02:04:16.889    27 Dec 2023 02:37:30.920      1994.0317581    Earth           Umbra       90            1994.0317581
27 Dec 2023 03:42:52.553    27 Dec 2023 04:16:06.518      1993.9648337    Earth           Umbra       91            1993.9648337
27 Dec 2023 05:21:28.274    27 Dec 2023 05:54:42.164      1993.8903697    Earth           Umbra       92            1993.8903697
27 Dec 2023 07:00:03.964    27 Dec 2023 07:33:17.769      1993.8048605    Earth           Umbra       93            1993.8048605
27 Dec 2023 08:38:39.571    27 Dec 2023 09:11:53.290      1993.7187295    Earth           Umbra       94            1993.7187295
27 Dec 2023 10:17:15.135    27 Dec 2023 10:50:28.782      1993.6473402    Earth           Umbra       95            1993.6473402
27 Dec 2023 11:55:50.712    27 Dec 2023 12:29:04.306      1993.5934932    Earth           Umbra       96            1993.5934932
27 Dec 2023 13:34:26.331    27 Dec 2023 14:07:39.872      1993.5405612    Earth           Umbra       97            1993.5405612
27 Dec 2023 15:13:02.008    27 Dec 2023 15:46:15.478      1993.4700325    Earth           Umbra       98            1993.4700325
27 Dec 2023 16:51:37.732    27 Dec 2023 17:24:51.117      1993.3851962    Earth           Umbra       99            1993.3851962
27 Dec 2023 18:30:13.440    27 Dec 2023 19:03:26.746      1993.3061786    Earth           Umbra       100           1993.3061786
27 Dec 2023 20:08:49.082    27 Dec 2023 20:42:02.324      1993.2414834    Earth           Umbra       101           1993.2414834
27 Dec 2023 21:47:24.674    27 Dec 2023 22:20:37.854      1993.1794436    Earth           Umbra       102           1993.1794436
27 Dec 2023 23:26:00.248    27 Dec 2023 23:59:13.358      1993.1099396    Earth           Umbra       103           1993.1099396
28 Dec 2023 01:04:35.821    28 Dec 2023 01:37:48.859      1993.0379657    Earth           Umbra       104           1993.0379657
28 Dec 2023 02:43:11.432    28 Dec 2023 03:16:24.402      1992.9700267    Earth           Umbra       105           1992.9700267
28 Dec 2023 04:21:47.117    28 Dec 2023 04:55:00.017      1992.9007943    Earth           Umbra       106           1992.9007943
28 Dec 2023 06:00:22.828    28 Dec 2023 06:33:35.649      1992.8211405    Earth           Umbra       107           1992.8211405
28 Dec 2023 07:38:58.477    28 Dec 2023 08:12:11.210      1992.7329366    Earth           Umbra       108           1992.7329366
28 Dec 2023 09:17:34.050    28 Dec 2023 09:50:46.701      1992.6504203    Earth           Umbra       109           1992.6504203
28 Dec 2023 10:56:09.605    28 Dec 2023 11:29:22.192      1992.5861155    Earth           Umbra       110           1992.5861155
28 Dec 2023 12:34:45.188    28 Dec 2023 13:07:57.723      1992.5347633    Earth           Umbra       111           1992.5347633
28 Dec 2023 14:13:20.820    28 Dec 2023 14:46:33.296      1992.4756498    Earth           Umbra       112           1992.4756498
28 Dec 2023 15:51:56.511    28 Dec 2023 16:25:08.908      1992.3969362    Earth           Umbra       113           1992.3969362
28 Dec 2023 17:30:32.229    28 Dec 2023 18:03:44.540      1992.3113106    Earth           Umbra       114           1992.3113106
28 Dec 2023 19:09:07.904    28 Dec 2023 19:42:20.142      1992.2377220    Earth           Umbra       115           1992.2377220
28 Dec 2023 20:47:43.514    28 Dec 2023 21:20:55.689      1992.1755502    Earth           Umbra       116           1992.1755502
28 Dec 2023 22:26:19.087    28 Dec 2023 22:59:31.198      1992.1104241    Earth           Umbra       117           1992.1104241
29 Dec 2023 00:04:54.649    29 Dec 2023 00:38:06.688      1992.0381999    Earth           Umbra       118           1992.0381999
29 Dec 2023 01:43:30.222    29 Dec 2023 02:16:42.189      1991.9670206    Earth           Umbra       119           1991.9670206
29 Dec 2023 03:22:05.853    29 Dec 2023 03:55:17.752      1991.8992837    Earth           Umbra       120           1991.8992837
29 Dec 2023 05:00:41.550    29 Dec 2023 05:33:53.376      1991.8262439    Earth           Umbra       121           1991.8262439
29 Dec 2023 06:39:17.236    29 Dec 2023 07:12:28.978      1991.7416962    Earth           Umbra       122           1991.7416962
29 Dec 2023 08:17:52.842    29 Dec 2023 08:51:04.495      1991.6531380    Earth           Umbra       123           1991.6531380
29 Dec 2023 09:56:28.392    29 Dec 2023 10:29:39.968      1991.5763977    Earth           Umbra       124           1991.5763977
29 Dec 2023 11:35:03.945    29 Dec 2023 12:08:15.464      1991.5184551    Earth           Umbra       125           1991.5184551
29 Dec 2023 13:13:39.537    29 Dec 2023 13:46:51.003      1991.4661577    Earth           Umbra       126           1991.4661577
29 Dec 2023 14:52:15.183    29 Dec 2023 15:25:26.582      1991.3987955    Earth           Umbra       127           1991.3987955
29 Dec 2023 16:30:50.883    29 Dec 2023 17:04:02.198      1991.3141028    Earth           Umbra       128           1991.3141028
29 Dec 2023 18:09:26.583    29 Dec 2023 18:42:37.814      1991.2311050    Earth           Umbra       129           1991.2311050
29 Dec 2023 19:48:02.222    29 Dec 2023 20:21:13.385      1991.1629429    Earth           Umbra       130           1991.1629429
29 Dec 2023 21:26:37.804    29 Dec 2023 21:59:48.905      1991.1008116    Earth           Umbra       131           1991.1008116
29 Dec 2023 23:05:13.363    29 Dec 2023 23:38:24.395      1991.0319240    Earth           Umbra       132           1991.0319240
30 Dec 2023 00:43:48.916    30 Dec 2023 01:16:59.874      1990.9585023    Earth           Umbra       133           1990.9585023
30 Dec 2023 02:22:24.497    30 Dec 2023 02:55:35.385      1990.8886459    Earth           Umbra       134           1990.8886459
30 Dec 2023 04:01:00.149    30 Dec 2023 04:34:10.969      1990.8197027    Earth           Umbra       135           1990.8197027
30 Dec 2023 05:39:35.845    30 Dec 2023 06:12:46.587      1990.7418396    Earth           Umbra       136           1990.7418396
30 Dec 2023 07:18:11.494    30 Dec 2023 07:51:22.148      1990.6536190    Earth           Umbra       137           1990.6536190
30 Dec 2023 08:56:47.062    30 Dec 2023 09:29:57.629      1990.5673403    Earth           Umbra       138           1990.5673403
30 Dec 2023 10:35:22.598    30 Dec 2023 11:08:33.095      1990.4976744    Earth           Umbra       139           1990.4976744
30 Dec 2023 12:13:58.155    30 Dec 2023 12:47:08.599      1990.4440270    Earth           Umbra       140           1990.4440270
30 Dec 2023 13:52:33.757    30 Dec 2023 14:25:44.145      1990.3872757    Earth           Umbra       141           1990.3872757
30 Dec 2023 15:31:09.419    30 Dec 2023 16:04:19.731      1990.3112369    Earth           Umbra       142           1990.3112369
30 Dec 2023 17:09:45.119    30 Dec 2023 17:42:55.343      1990.2239323    Earth           Umbra       143           1990.2239323
30 Dec 2023 18:48:20.791    30 Dec 2023 19:21:30.937      1990.1459941    Earth           Umbra       144           1990.1459941
30 Dec 2023 20:26:56.394    30 Dec 2023 21:00:06.476      1990.0817958    Earth           Umbra       145           1990.0817958
30 Dec 2023 22:05:31.955    30 Dec 2023 22:38:41.972      1990.0174995    Earth           Umbra       146           1990.0174995
30 Dec 2023 23:44:07.500    31 Dec 2023 00:17:17.446      1989.9453118    Earth           Umbra       147           1989.9453118
31 Dec 2023 01:22:43.050    31 Dec 2023 01:55:52.922      1989.8722196    Earth           Umbra       148           1989.8722196
31 Dec 2023 03:01:18.647    31 Dec 2023 03:34:28.450      1989.8033414    Earth           Umbra       149           1989.8033414
31 Dec 2023 04:39:54.316    31 Dec 2023 05:13:04.048      1989.7315928    Earth           Umbra       150           1989.7315928
31 Dec 2023 06:18:29.995    31 Dec 2023 06:51:39.644      1989.6486714    Earth           Umbra       151           1989.6486714
31 Dec 2023 07:57:05.602    31 Dec 2023 08:30:15.160      1989.5587946    Earth           Umbra       152           1989.5587946
31 Dec 2023 09:35:41.139    31 Dec 2023 10:08:50.617      1989.4772939    Earth           Umbra       153           1989.4772939
31 Dec 2023 11:14:16.671    31 Dec 2023 11:47:26.085      1989.4147723    Earth           Umbra       154           1989.4147723
31 Dec 2023 12:52:52.235    31 Dec 2023 13:26:01.597      1989.3622973    Earth           Umbra       155           1989.3622973
31 Dec 2023 14:31:27.851    31 Dec 2023 15:04:37.149      1989.2982977    Earth           Umbra       156           1989.2982977
31 Dec 2023 16:10:03.525    31 Dec 2023 16:43:12.740      1989.2149604    Earth           Umbra       157           1989.2149604
31 Dec 2023 17:48:39.213    31 Dec 2023 18:21:48.342      1989.1287514    Earth           Umbra       158           1989.1287514
31 Dec 2023 19:27:14.849    31 Dec 2023 20:00:23.906      1989.0567728    Earth           Umbra       159           1989.0567728
31 Dec 2023 21:05:50.422    31 Dec 2023 21:38:59.416      1988.9941735    Earth           Umbra       160           1988.9941735
31 Dec 2023 22:44:25.966    31 Dec 2023 23:17:34.892      1988.9263910    Earth           Umbra       161           1988.9263910
01 Jan 2024 00:23:01.500    01 Jan 2024 00:56:10.353      1988.8522231    Earth           Umbra       162           1988.8522231
01 Jan 2024 02:01:37.053    01 Jan 2024 02:34:45.834      1988.7804702    Earth           Umbra       163           1988.7804702
01 Jan 2024 03:40:12.672    01 Jan 2024 04:13:21.383      1988.7114615    Earth           Umbra       164           1988.7114615
01 Jan 2024 05:18:48.348    01 Jan 2024 05:51:56.983      1988.6355592    Earth           Umbra       165           1988.6355592
01 Jan 2024 06:57:23.995    01 Jan 2024 07:30:32.543      1988.5482690    Earth           Umbra       166           1988.5482690
01 Jan 2024 08:35:59.560    01 Jan 2024 09:09:08.019      1988.4592771    Earth           Umbra       167           1988.4592771
01 Jan 2024 10:14:35.079    01 Jan 2024 10:47:43.463      1988.3844416    Earth           Umbra       168           1988.3844416
01 Jan 2024 11:53:10.611    01 Jan 2024 12:26:18.939      1988.3277399    Earth           Umbra       169           1988.3277399
01 Jan 2024 13:31:46.185    01 Jan 2024 14:04:54.457      1988.2728245    Earth           Umbra       170           1988.2728245
01 Jan 2024 15:10:21.816    01 Jan 2024 15:43:30.016      1988.2001933    Earth           Umbra       171           1988.2001933
01 Jan 2024 16:48:57.495    01 Jan 2024 17:22:05.607      1988.1124581    Earth           Umbra       172           1988.1124581
01 Jan 2024 18:27:33.160    01 Jan 2024 19:00:41.190      1988.0304786    Earth           Umbra       173           1988.0304786
01 Jan 2024 20:06:08.759    01 Jan 2024 20:39:16.723      1987.9637265    Earth           Umbra       174           1987.9637265
01 Jan 2024 21:44:44.307    01 Jan 2024 22:17:52.207      1987.9002169    Earth           Umbra       175           1987.9002169
01 Jan 2024 23:23:19.837    01 Jan 2024 23:56:27.666      1987.8288038    Earth           Umbra       176           1987.8288038
02 Jan 2024 01:01:55.365    02 Jan 2024 01:35:03.119      1987.7543074    Earth           Umbra       177           1987.7543074
02 Jan 2024 02:40:30.930    02 Jan 2024 03:13:38.614      1987.6840779    Earth           Umbra       178           1987.6840779
02 Jan 2024 04:19:06.568    02 Jan 2024 04:52:14.182      1987.6133902    Earth           Umbra       179           1987.6133902
02 Jan 2024 05:57:42.236    02 Jan 2024 06:30:49.768      1987.5326084    Earth           Umbra       180           1987.5326084
02 Jan 2024 07:36:17.842    02 Jan 2024 08:09:25.285      1987.4425399    Earth           Umbra       181           1987.4425399
02 Jan 2024 09:14:53.372    02 Jan 2024 09:48:00.729      1987.3571080    Earth           Umbra       182           1987.3571080
02 Jan 2024 10:53:28.882    02 Jan 2024 11:26:36.172      1987.2897731    Earth           Umbra       183           1987.2897731
02 Jan 2024 12:32:04.419    02 Jan 2024 13:05:11.655      1987.2362803    Earth           Umbra       184           1987.2362803
02 Jan 2024 14:10:40.005    02 Jan 2024 14:43:47.181      1987.1755927    Earth           Umbra       185           1987.1755927
02 Jan 2024 15:49:15.651    02 Jan 2024 16:22:22.745      1987.0947578    Earth           Umbra       186           1987.0947578
02 Jan 2024 17:27:51.324    02 Jan 2024 18:00:58.330      1987.0063583    Earth           Umbra       187           1987.0063583
02 Jan 2024 19:06:26.956    02 Jan 2024 19:39:33.887      1986.9304268    Earth           Umbra       188           1986.9304268
02 Jan 2024 20:45:02.522    02 Jan 2024 21:18:09.389      1986.8668854    Earth           Umbra       189           1986.8668854
02 Jan 2024 22:23:38.051    02 Jan 2024 22:56:44.851      1986.8005580    Earth           Umbra       190           1986.8005580
03 Jan 2024 00:02:13.568    03 Jan 2024 00:35:20.295      1986.7264495    Earth           Umbra       191           1986.7264495
03 Jan 2024 01:40:49.096    03 Jan 2024 02:13:55.749      1986.6530306    Earth           Umbra       192           1986.6530306
03 Jan 2024 03:19:24.680    03 Jan 2024 03:52:31.263      1986.5836338    Earth           Umbra       193           1986.5836338
03 Jan 2024 04:58:00.331    03 Jan 2024 05:31:06.841      1986.5097123    Earth           Umbra       194           1986.5097123
03 Jan 2024 06:36:35.974    03 Jan 2024 07:09:42.398      1986.4241940    Earth           Umbra       195           1986.4241940
03 Jan 2024 08:15:11.537    03 Jan 2024 08:48:17.871      1986.3336480    Earth           Umbra       196           1986.3336480
03 Jan 2024 09:53:47.042    03 Jan 2024 10:26:53.296      1986.2541200    Earth           Umbra       197           1986.2541200
03 Jan 2024 11:32:22.550    03 Jan 2024 12:05:28.744      1986.1937675    Earth           Umbra       198           1986.1937675
03 Jan 2024 13:10:58.095    03 Jan 2024 13:44:04.235      1986.1400101    Earth           Umbra       199           1986.1400101
03 Jan 2024 14:49:33.696    03 Jan 2024 15:22:39.767      1986.0712934    Earth           Umbra       200           1986.0712934
03 Jan 2024 16:28:09.351    03 Jan 2024 17:01:15.335      1985.9844568    Earth           Umbra       201           1985.9844568
03 Jan 2024 18:06:45.006    03 Jan 2024 18:39:50.905      1985.8990390    Earth           Umbra       202           1985.8990390
03 Jan 2024 19:45:20.602    03 Jan 2024 20:18:26.431      1985.8292911    Earth           Umbra       203           1985.8292911
03 Jan 2024 21:23:56.139    03 Jan 2024 21:57:01.906      1985.7663640    Earth           Umbra       204           1985.7663640
03 Jan 2024 23:02:31.653    03 Jan 2024 23:35:37.350      1985.6964026    Earth           Umbra       205           1985.6964026
04 Jan 2024 00:41:07.161    04 Jan 2024 01:14:12.783      1985.6211937    Earth           Umbra       206           1985.6211937
04 Jan 2024 02:19:42.696    04 Jan 2024 02:52:48.246      1985.5495652    Earth           Umbra       207           1985.5495652
04 Jan 2024 03:58:18.301    04 Jan 2024 04:31:23.781      1985.4796532    Earth           Umbra       208           1985.4796532
04 Jan 2024 05:36:53.952    04 Jan 2024 06:09:59.354      1985.4013627    Earth           Umbra       209           1985.4013627
04 Jan 2024 07:15:29.558    04 Jan 2024 07:48:34.871      1985.3121922    Earth           Umbra       210           1985.3121922
04 Jan 2024 08:54:05.082    04 Jan 2024 09:27:10.306      1985.2238591    Earth           Umbra       211           1985.2238591
04 Jan 2024 10:32:40.573    04 Jan 2024 11:05:45.725      1985.1517573    Earth           Umbra       212           1985.1517573
04 Jan 2024 12:11:16.084    04 Jan 2024 12:44:21.181      1985.0964502    Earth           Umbra       213           1985.0964502
04 Jan 2024 13:49:51.640    04 Jan 2024 14:22:56.679      1985.0387867    Earth           Umbra       214           1985.0387867
04 Jan 2024 15:28:27.256    04 Jan 2024 16:01:32.217      1984.9614633    Earth           Umbra       215           1984.9614633
04 Jan 2024 17:07:02.911    04 Jan 2024 17:40:07.783      1984.8721046    Earth           Umbra       216           1984.8721046
04 Jan 2024 18:45:38.538    04 Jan 2024 19:18:43.330      1984.7923418    Earth           Umbra       217           1984.7923418
04 Jan 2024 20:24:14.098    04 Jan 2024 20:57:18.825      1984.7273455    Earth           Umbra       218           1984.7273455
04 Jan 2024 22:02:49.613    04 Jan 2024 22:35:54.276      1984.6626540    Earth           Umbra       219           1984.6626540
04 Jan 2024 23:41:25.114    05 Jan 2024 00:14:29.703      1984.5894580    Earth           Umbra       220           1984.5894580
05 Jan 2024 01:20:00.617    05 Jan 2024 01:53:05.132      1984.5148164    Earth           Umbra       221           1984.5148164
05 Jan 2024 02:58:36.168    05 Jan 2024 03:31:40.612      1984.4447929    Earth           Umbra       222           1984.4447929
05 Jan 2024 04:37:11.791    05 Jan 2024 05:10:16.163      1984.3727510    Earth           Umbra       223           1984.3727510
05 Jan 2024 06:15:47.425    05 Jan 2024 06:48:51.715      1984.2897042    Earth           Umbra       224           1984.2897042
05 Jan 2024 07:54:22.988    05 Jan 2024 08:27:27.187      1984.1988188    Earth           Umbra       225           1984.1988188
05 Jan 2024 09:32:58.482    05 Jan 2024 10:06:02.597      1984.1153382    Earth           Umbra       226           1984.1153382
05 Jan 2024 11:11:33.967    05 Jan 2024 11:44:38.018      1984.0509617    Earth           Umbra       227           1984.0509617
05 Jan 2024 12:50:09.484    05 Jan 2024 13:23:13.482      1983.9975965    Earth           Umbra       228           1983.9975965
05 Jan 2024 14:28:45.054    05 Jan 2024 15:01:48.987      1983.9330463    Earth           Umbra       229           1983.9330463
05 Jan 2024 16:07:20.682    05 Jan 2024 16:40:24.530      1983.8484347    Earth           Umbra       230           1983.8484347
05 Jan 2024 17:45:56.325    05 Jan 2024 18:19:00.086      1983.7604706    Earth           Umbra       231           1983.7604706
05 Jan 2024 19:24:31.917    05 Jan 2024 19:57:35.605      1983.6874465    Earth           Umbra       232           1983.6874465
05 Jan 2024 21:03:07.446    05 Jan 2024 21:36:11.070      1983.6247551    Earth           Umbra       233           1983.6247551
05 Jan 2024 22:41:42.944    05 Jan 2024 23:14:46.501      1983.5568133    Earth           Umbra       234           1983.5568133
06 Jan 2024 00:20:18.433    06 Jan 2024 00:53:21.915      1983.4817260    Earth           Umbra       235           1983.4817260
06 Jan 2024 01:58:53.940    06 Jan 2024 02:31:57.349      1983.4088484    Earth           Umbra       236           1983.4088484
06 Jan 2024 03:37:29.511    06 Jan 2024 04:10:32.850      1983.3394221    Earth           Umbra       237           1983.3394221
06 Jan 2024 05:16:05.141    06 Jan 2024 05:49:08.405      1983.2638146    Earth           Umbra       238           1983.2638146
06 Jan 2024 06:54:40.745    06 Jan 2024 07:27:43.921      1983.1765470    Earth           Umbra       239           1983.1765470
06 Jan 2024 08:33:16.265    06 Jan 2024 09:06:19.352      1983.0864917    Earth           Umbra       240           1983.0864917
06 Jan 2024 10:11:51.739    06 Jan 2024 10:44:54.749      1983.0099611    Earth           Umbra       241           1983.0099611
06 Jan 2024 11:50:27.224    06 Jan 2024 12:23:30.177      1982.9521590    Earth           Umbra       242           1982.9521590
06 Jan 2024 13:29:02.751    06 Jan 2024 14:02:05.648      1982.8970323    Earth           Umbra       243           1982.8970323
06 Jan 2024 15:07:38.336    06 Jan 2024 15:40:41.160      1982.8240315    Earth           Umbra       244           1982.8240315
06 Jan 2024 16:46:13.969    06 Jan 2024 17:19:16.704      1982.7350943    Earth           Umbra       245           1982.7350943
06 Jan 2024 18:24:49.589    06 Jan 2024 18:57:52.241      1982.6519120    Earth           Umbra       246           1982.6519120
06 Jan 2024 20:03:25.144    06 Jan 2024 20:36:27.729      1982.5849744    Earth           Umbra       247           1982.5849744
06 Jan 2024 21:42:00.647    06 Jan 2024 22:15:03.169      1982.5219196    Earth           Umbra       248           1982.5219196
06 Jan 2024 23:20:36.131    06 Jan 2024 23:53:38.582      1982.4504760    Earth           Umbra       249           1982.4504760
07 Jan 2024 00:59:11.613    07 Jan 2024 01:32:13.989      1982.3752620    Earth           Umbra       250           1982.3752620
07 Jan 2024 02:37:47.131    07 Jan 2024 03:10:49.436      1982.3045083    Earth           Umbra       251           1982.3045083
07 Jan 2024 04:16:22.722    07 Jan 2024 04:49:24.957      1982.2341587    Earth           Umbra       252           1982.2341587
07 Jan 2024 05:54:58.345    07 Jan 2024 06:28:00.499      1982.1541212    Earth           Umbra       253           1982.1541212
07 Jan 2024 07:33:33.907    07 Jan 2024 08:06:35.972      1982.0641090    Earth           Umbra       254           1982.0641090
07 Jan 2024 09:12:09.392    07 Jan 2024 09:45:11.370      1981.9776549    Earth           Umbra       255           1981.9776549
07 Jan 2024 10:50:44.856    07 Jan 2024 11:23:46.765      1981.9091482    Earth           Umbra       256           1981.9091482
07 Jan 2024 12:29:20.346    07 Jan 2024 13:02:22.202      1981.8553883    Earth           Umbra       257           1981.8553883
07 Jan 2024 14:07:55.885    07 Jan 2024 14:40:57.680      1981.7949977    Earth           Umbra       258           1981.7949977
07 Jan 2024 15:46:31.484    07 Jan 2024 16:19:33.198      1981.7138645    Earth           Umbra       259           1981.7138645
07 Jan 2024 17:25:07.112    07 Jan 2024 17:58:08.736      1981.6245104    Earth           Umbra       260           1981.6245104
07 Jan 2024 19:03:42.700    07 Jan 2024 19:36:44.248      1981.5481502    Earth           Umbra       261           1981.5481502
07 Jan 2024 20:42:18.220    07 Jan 2024 21:15:19.706      1981.4852519    Earth           Umbra       262           1981.4852519
07 Jan 2024 22:20:53.704    07 Jan 2024 22:53:55.124      1981.4197433    Earth           Umbra       263           1981.4197433
07 Jan 2024 23:59:29.176    08 Jan 2024 00:32:30.521      1981.3457124    Earth           Umbra       264           1981.3457124
08 Jan 2024 01:38:04.656    08 Jan 2024 02:11:05.928      1981.2719506    Earth           Umbra       265           1981.2719506
08 Jan 2024 03:16:40.192    08 Jan 2024 03:49:41.395      1981.2027697    Earth           Umbra       266           1981.2027697
08 Jan 2024 04:55:15.797    08 Jan 2024 05:28:16.927      1981.1298924    Earth           Umbra       267           1981.1298924
08 Jan 2024 06:33:51.395    08 Jan 2024 07:06:52.441      1981.0454104    Earth           Umbra       268           1981.0454104
08 Jan 2024 08:12:26.915    08 Jan 2024 08:45:27.869      1980.9549097    Earth           Umbra       269           1980.9549097
08 Jan 2024 09:51:02.374    08 Jan 2024 10:24:03.248      1980.8745808    Earth           Umbra       270           1980.8745808
08 Jan 2024 11:29:37.835    08 Jan 2024 12:02:38.649      1980.8137901    Earth           Umbra       271           1980.8137901
08 Jan 2024 13:08:13.333    08 Jan 2024 13:41:14.094      1980.7605611    Earth           Umbra       272           1980.7605611
08 Jan 2024 14:46:48.886    08 Jan 2024 15:19:49.579      1980.6924574    Earth           Umbra       273           1980.6924574
08 Jan 2024 16:25:24.495    08 Jan 2024 16:58:25.100      1980.6053988    Earth           Umbra       274           1980.6053988
08 Jan 2024 18:04:00.105    08 Jan 2024 18:37:00.625      1980.5195225    Earth           Umbra       275           1980.5195225
08 Jan 2024 19:42:35.656    08 Jan 2024 20:15:36.106      1980.4502583    Earth           Umbra       276           1980.4502583
08 Jan 2024 21:21:11.148    08 Jan 2024 21:54:11.537      1980.3886692    Earth           Umbra       277           1980.3886692
08 Jan 2024 22:59:46.616    08 Jan 2024 23:32:46.936      1980.3197480    Earth           Umbra       278           1980.3197480
09 Jan 2024 00:38:22.078    09 Jan 2024 01:11:22.323      1980.2447962    Earth           Umbra       279           1980.2447962
09 Jan 2024 02:16:57.565    09 Jan 2024 02:49:57.738      1980.1733902    Earth           Umbra       280           1980.1733902
09 Jan 2024 03:55:33.123    09 Jan 2024 04:28:33.227      1980.1045051    Earth           Umbra       281           1980.1045051
09 Jan 2024 05:34:08.728    09 Jan 2024 06:07:08.755      1980.0278541    Earth           Umbra       282           1980.0278541
09 Jan 2024 07:12:44.290    09 Jan 2024 07:45:44.229      1979.9398743    Earth           Umbra       283           1979.9398743
09 Jan 2024 08:51:19.769    09 Jan 2024 09:24:19.620      1979.8516204    Earth           Umbra       284           1979.8516204
09 Jan 2024 10:29:55.213    09 Jan 2024 11:02:54.992      1979.7791756    Earth           Umbra       285           1979.7791756
09 Jan 2024 12:08:30.677    09 Jan 2024 12:41:30.401      1979.7242970    Earth           Umbra       286           1979.7242970
09 Jan 2024 13:47:06.185    09 Jan 2024 14:20:05.853      1979.6678213    Earth           Umbra       287           1979.6678213
09 Jan 2024 15:25:41.753    09 Jan 2024 15:58:41.345      1979.5912739    Earth           Umbra       288           1979.5912739
09 Jan 2024 17:04:17.362    09 Jan 2024 17:37:16.864      1979.5019039    Earth           Umbra       289           1979.5019039
09 Jan 2024 18:42:52.945    09 Jan 2024 19:15:52.367      1979.4224284    Earth           Umbra       290           1979.4224284
09 Jan 2024 20:21:28.459    09 Jan 2024 20:54:27.818      1979.3588500    Earth           Umbra       291           1979.3588500
09 Jan 2024 22:00:03.929    09 Jan 2024 22:33:03.225      1979.2960108    Earth           Umbra       292           1979.2960108
09 Jan 2024 23:38:39.383    10 Jan 2024 00:11:38.607      1979.2240070    Earth           Umbra       293           1979.2240070
10 Jan 2024 01:17:14.840    10 Jan 2024 01:50:13.990      1979.1499554    Earth           Umbra       294           1979.1499554
10 Jan 2024 02:55:50.342    10 Jan 2024 03:28:49.423      1979.0808849    Earth           Umbra       295           1979.0808849
10 Jan 2024 04:34:25.918    10 Jan 2024 05:07:24.928      1979.0106777    Earth           Umbra       296           1979.0106777
10 Jan 2024 06:13:01.507    10 Jan 2024 06:46:00.437      1978.9297180    Earth           Umbra       297           1978.9297180
10 Jan 2024 07:51:37.026    10 Jan 2024 08:24:35.866      1978.8400893    Earth           Umbra       298           1978.8400893
10 Jan 2024 09:30:12.474    10 Jan 2024 10:03:11.230      1978.7568667    Earth           Umbra       299           1978.7568667
10 Jan 2024 11:08:47.912    10 Jan 2024 11:41:46.604      1978.6928382    Earth           Umbra       300           1978.6928382
10 Jan 2024 12:47:23.382    10 Jan 2024 13:20:22.022      1978.6407919    Earth           Umbra       301           1978.6407919
10 Jan 2024 14:25:58.903    10 Jan 2024 14:58:57.481      1978.5778978    Earth           Umbra       302           1978.5778978
10 Jan 2024 16:04:34.484    10 Jan 2024 16:37:32.978      1978.4941754    Earth           Umbra       303           1978.4941754
10 Jan 2024 17:43:10.082    10 Jan 2024 18:16:08.488      1978.4066379    Earth           Umbra       304           1978.4066379
10 Jan 2024 19:21:45.629    10 Jan 2024 19:54:43.964      1978.3348400    Earth           Umbra       305           1978.3348400
10 Jan 2024 21:00:21.111    10 Jan 2024 21:33:19.386      1978.2744073    Earth           Umbra       306           1978.2744073
10 Jan 2024 22:38:56.563    10 Jan 2024 23:11:54.772      1978.2086591    Earth           Umbra       307           1978.2086591
11 Jan 2024 00:17:32.006    11 Jan 2024 00:50:30.141      1978.1349476    Earth           Umbra       308           1978.1349476
11 Jan 2024 01:56:07.465    11 Jan 2024 02:29:05.529      1978.0631802    Earth           Umbra       309           1978.0631802
11 Jan 2024 03:34:42.988    11 Jan 2024 04:07:40.984      1977.9955536    Earth           Umbra       310           1977.9955536
11 Jan 2024 05:13:18.571    11 Jan 2024 05:46:16.494      1977.9225119    Earth           Umbra       311           1977.9225119
11 Jan 2024 06:51:54.130    11 Jan 2024 07:24:51.968      1977.8376273    Earth           Umbra       312           1977.8376273
11 Jan 2024 08:30:29.606    11 Jan 2024 09:03:27.355      1977.7488909    Earth           Umbra       313           1977.7488909
11 Jan 2024 10:09:05.033    11 Jan 2024 10:42:02.706      1977.6730099    Earth           Umbra       314           1977.6730099
11 Jan 2024 11:47:40.471    11 Jan 2024 12:20:38.088      1977.6164302    Earth           Umbra       315           1977.6164302
11 Jan 2024 13:26:15.950    11 Jan 2024 13:59:13.514      1977.5634240    Earth           Umbra       316           1977.5634240
11 Jan 2024 15:04:51.487    11 Jan 2024 15:37:48.979      1977.4923660    Earth           Umbra       317           1977.4923660
11 Jan 2024 16:43:27.073    11 Jan 2024 17:16:24.478      1977.4045084    Earth           Umbra       318           1977.4045084
11 Jan 2024 18:22:02.648    11 Jan 2024 18:54:59.971      1977.3224552    Earth           Umbra       319           1977.3224552
11 Jan 2024 20:00:38.158    11 Jan 2024 20:33:35.416      1977.2577628    Earth           Umbra       320           1977.2577628
11 Jan 2024 21:39:13.615    11 Jan 2024 22:12:10.812      1977.1976394    Earth           Umbra       321           1977.1976394
11 Jan 2024 23:17:49.052    11 Jan 2024 23:50:46.181      1977.1286179    Earth           Umbra       322           1977.1286179
12 Jan 2024 00:56:24.487    12 Jan 2024 01:29:21.542      1977.0550799    Earth           Umbra       323           1977.0550799
12 Jan 2024 02:34:59.957    12 Jan 2024 03:07:56.943      1976.9861448    Earth           Umbra       324           1976.9861448
12 Jan 2024 04:13:35.500    12 Jan 2024 04:46:32.419      1976.9184774    Earth           Umbra       325           1976.9184774
12 Jan 2024 05:52:11.077    12 Jan 2024 06:25:07.918      1976.8416107    Earth           Umbra       326           1976.8416107
12 Jan 2024 07:30:46.595    12 Jan 2024 08:03:43.349      1976.7541552    Earth           Umbra       327           1976.7541552
12 Jan 2024 09:09:22.034    12 Jan 2024 09:42:18.703      1976.6691769    Earth           Umbra       328           1976.6691769
12 Jan 2024 10:47:57.450    12 Jan 2024 11:20:54.052      1976.6019517    Earth           Umbra       329           1976.6019517
12 Jan 2024 12:26:32.893    12 Jan 2024 12:59:29.443      1976.5503709    Earth           Umbra       330           1976.5503709
12 Jan 2024 14:05:08.384    12 Jan 2024 14:38:04.876      1976.4927272    Earth           Umbra       331           1976.4927272
12 Jan 2024 15:43:43.935    12 Jan 2024 16:16:40.348      1976.4137175    Earth           Umbra       332           1976.4137175
12 Jan 2024 17:22:19.516    12 Jan 2024 17:55:15.842      1976.3258260    Earth           Umbra       333           1976.3258260
12 Jan 2024 19:00:55.059    12 Jan 2024 19:33:51.310      1976.2515277    Earth           Umbra       334           1976.2515277
12 Jan 2024 20:39:30.534    12 Jan 2024 21:12:26.726      1976.1918478    Earth           Umbra       335           1976.1918478
12 Jan 2024 22:18:05.971    12 Jan 2024 22:51:02.100      1976.1297527    Earth           Umbra       336           1976.1297527
12 Jan 2024 23:56:41.396    13 Jan 2024 00:29:37.454      1976.0583502    Earth           Umbra       337           1976.0583502
13 Jan 2024 01:35:16.829    13 Jan 2024 02:08:12.815      1975.9867399    Earth           Umbra       338           1975.9867399
13 Jan 2024 03:13:52.316    13 Jan 2024 03:46:48.237      1975.9202270    Earth           Umbra       339           1975.9202270
13 Jan 2024 04:52:27.874    13 Jan 2024 05:25:23.724      1975.8508795    Earth           Umbra       340           1975.8508795
13 Jan 2024 06:31:03.427    13 Jan 2024 07:03:59.197      1975.7700137    Earth           Umbra       341           1975.7700137
13 Jan 2024 08:09:38.901    13 Jan 2024 08:42:34.583      1975.6821914    Earth           Umbra       342           1975.6821914
13 Jan 2024 09:48:14.314    13 Jan 2024 10:21:09.917      1975.6036689    Earth           Umbra       343           1975.6036689
13 Jan 2024 11:26:49.727    13 Jan 2024 11:59:45.272      1975.5450058    Earth           Umbra       344           1975.5450058
13 Jan 2024 13:05:25.177    13 Jan 2024 13:38:20.672      1975.4948735    Earth           Umbra       345           1975.4948735
13 Jan 2024 14:44:00.682    13 Jan 2024 15:16:56.112      1975.4299441    Earth           Umbra       346           1975.4299441
13 Jan 2024 16:22:36.243    13 Jan 2024 16:55:31.588      1975.3451990    Earth           Umbra       347           1975.3451990
13 Jan 2024 18:01:11.808    13 Jan 2024 18:34:07.069      1975.2614245    Earth           Umbra       348           1975.2614245
13 Jan 2024 19:39:47.313    13 Jan 2024 20:12:42.508      1975.1952881    Earth           Umbra       349           1975.1952881
13 Jan 2024 21:18:22.759    13 Jan 2024 21:51:17.896      1975.1377412    Earth           Umbra       350           1975.1377412
13 Jan 2024 22:56:58.180    13 Jan 2024 23:29:53.252      1975.0725588    Earth           Umbra       351           1975.0725588
14 Jan 2024 00:35:33.595    14 Jan 2024 01:08:28.595      1975.0005120    Earth           Umbra       352           1975.0005120
14 Jan 2024 02:14:09.034    14 Jan 2024 02:47:03.966      1974.9319176    Earth           Umbra       353           1974.9319176
14 Jan 2024 03:52:44.543    14 Jan 2024 04:25:39.410      1974.8666268    Earth           Umbra       354           1974.8666268
14 Jan 2024 05:31:20.101    14 Jan 2024 06:04:14.896      1974.7942445    Earth           Umbra       355           1974.7942445
14 Jan 2024 07:09:55.619    14 Jan 2024 07:42:50.329      1974.7101777    Earth           Umbra       356           1974.7101777
14 Jan 2024 08:48:31.052    14 Jan 2024 09:21:25.677      1974.6247533    Earth           Umbra       357           1974.6247533
14 Jan 2024 10:27:06.449    14 Jan 2024 11:00:01.004      1974.5546682    Earth           Umbra       358           1974.5546682
14 Jan 2024 12:05:41.865    14 Jan 2024 12:38:36.368      1974.5028954    Earth           Umbra       359           1974.5028954
14 Jan 2024 13:44:17.325    14 Jan 2024 14:17:11.775      1974.4502855    Earth           Umbra       360           1974.4502855
14 Jan 2024 15:22:52.845    14 Jan 2024 15:55:47.222      1974.3771791    Earth           Umbra       361           1974.3771791
14 Jan 2024 17:01:28.407    14 Jan 2024 17:34:22.697      1974.2904462    Earth           Umbra       362           1974.2904462
14 Jan 2024 18:40:03.944    14 Jan 2024 19:12:58.158      1974.2139595    Earth           Umbra       363           1974.2139595
14 Jan 2024 20:18:39.412    14 Jan 2024 20:51:33.567      1974.1545776    Earth           Umbra       364           1974.1545776
14 Jan 2024 21:57:14.835    14 Jan 2024 22:30:08.932      1974.0964018    Earth           Umbra       365           1974.0964018
14 Jan 2024 23:35:50.243    15 Jan 2024 00:08:44.271      1974.0283795    Earth           Umbra       366           1974.0283795
15 Jan 2024 01:14:25.652    15 Jan 2024 01:47:19.610      1973.9576493    Earth           Umbra       367           1973.9576493
15 Jan 2024 02:53:01.106    15 Jan 2024 03:25:54.998      1973.8922085    Earth           Umbra       368           1973.8922085
15 Jan 2024 04:31:36.633    15 Jan 2024 05:04:30.460      1973.8265147    Earth           Umbra       369           1973.8265147
15 Jan 2024 06:10:12.177    15 Jan 2024 06:43:05.927      1973.7504065    Earth           Umbra       370           1973.7504065
15 Jan 2024 07:48:47.651    15 Jan 2024 08:21:41.316      1973.6648806    Earth           Umbra       371           1973.6648806
15 Jan 2024 09:27:23.052    15 Jan 2024 10:00:16.637      1973.5847545    Earth           Umbra       372           1973.5847545
15 Jan 2024 11:05:58.442    15 Jan 2024 11:38:51.966      1973.5238619    Earth           Umbra       373           1973.5238619
15 Jan 2024 12:44:33.864    15 Jan 2024 13:17:27.340      1973.4759081    Earth           Umbra       374           1973.4759081
15 Jan 2024 14:23:09.337    15 Jan 2024 14:56:02.755      1973.4174390    Earth           Umbra       375           1973.4174390
15 Jan 2024 16:01:44.870    15 Jan 2024 16:34:38.207      1973.3373593    Earth           Umbra       376           1973.3373593
15 Jan 2024 17:40:20.421    15 Jan 2024 18:13:13.674      1973.2530049    Earth           Umbra       377           1973.2530049
15 Jan 2024 19:18:55.923    15 Jan 2024 19:51:49.108      1973.1852542    Earth           Umbra       378           1973.1852542
15 Jan 2024 20:57:31.359    15 Jan 2024 21:30:24.489      1973.1299648    Earth           Umbra       379           1973.1299648
15 Jan 2024 22:36:06.764    15 Jan 2024 23:08:59.834      1973.0693014    Earth           Umbra       380           1973.0693014
16 Jan 2024 00:14:42.160    16 Jan 2024 00:47:35.160      1972.9998216    Earth           Umbra       381           1972.9998216
16 Jan 2024 01:53:17.571    16 Jan 2024 02:26:10.503      1972.9319586    Earth           Umbra       382           1972.9319586
16 Jan 2024 03:31:53.045    16 Jan 2024 04:04:45.914      1972.8688769    Earth           Umbra       383           1972.8688769
16 Jan 2024 05:10:28.581    16 Jan 2024 05:43:21.382      1972.8011818    Earth           Umbra       384           1972.8011818
16 Jan 2024 06:49:04.095    16 Jan 2024 07:21:56.817      1972.7215588    Earth           Umbra       385           1972.7215588
16 Jan 2024 08:27:39.526    16 Jan 2024 09:00:32.163      1972.6370793    Earth           Umbra       386           1972.6370793
16 Jan 2024 10:06:14.906    16 Jan 2024 10:39:07.470      1972.5647455    Earth           Umbra       387           1972.5647455
16 Jan 2024 11:44:50.295    16 Jan 2024 12:17:42.808      1972.5122397    Earth           Umbra       388           1972.5122397
16 Jan 2024 13:23:25.726    16 Jan 2024 13:56:18.190      1972.4641969    Earth           Umbra       389           1972.4641969
16 Jan 2024 15:02:01.214    16 Jan 2024 15:34:53.612      1972.3979163    Earth           Umbra       390           1972.3979163
16 Jan 2024 16:40:36.753    16 Jan 2024 17:13:29.067      1972.3139613    Earth           Umbra       391           1972.3139613
16 Jan 2024 18:19:12.282    16 Jan 2024 18:52:04.518      1972.2358823    Earth           Umbra       392           1972.2358823
16 Jan 2024 19:57:47.746    16 Jan 2024 20:30:39.922      1972.1763442    Earth           Umbra       393           1972.1763442
16 Jan 2024 21:36:23.156    16 Jan 2024 22:09:15.278      1972.1221037    Earth           Umbra       394           1972.1221037
16 Jan 2024 23:14:58.547    16 Jan 2024 23:47:50.605      1972.0584448    Earth           Umbra       395           1972.0584448
17 Jan 2024 00:53:33.935    17 Jan 2024 01:26:25.924      1971.9894783    Earth           Umbra       396           1971.9894783
17 Jan 2024 02:32:09.356    17 Jan 2024 03:05:01.281      1971.9251864    Earth           Umbra       397           1971.9251864
17 Jan 2024 04:10:44.851    17 Jan 2024 04:43:36.714      1971.8629998    Earth           Umbra       398           1971.8629998
17 Jan 2024 05:49:20.381    17 Jan 2024 06:22:12.173      1971.7921643    Earth           Umbra       399           1971.7921643
17 Jan 2024 07:27:55.854    17 Jan 2024 08:00:47.565      1971.7102295    Earth           Umbra       400           1971.7102295
17 Jan 2024 09:06:31.247    17 Jan 2024 09:39:22.877      1971.6297076    Earth           Umbra       401           1971.6297076
17 Jan 2024 10:45:06.616    17 Jan 2024 11:17:58.183      1971.5666893    Earth           Umbra       402           1971.5666893
17 Jan 2024 12:23:42.010    17 Jan 2024 12:56:33.530      1971.5201735    Earth           Umbra       403           1971.5201735
17 Jan 2024 14:02:17.452    17 Jan 2024 14:35:08.920      1971.4681621    Earth           Umbra       404           1971.4681621
17 Jan 2024 15:40:52.955    17 Jan 2024 16:13:44.349      1971.3941451    Earth           Umbra       405           1971.3941451
17 Jan 2024 17:19:28.490    17 Jan 2024 17:52:19.801      1971.3105822    Earth           Umbra       406           1971.3105822
17 Jan 2024 18:58:03.987    17 Jan 2024 19:30:55.228      1971.2412485    Earth           Umbra       407           1971.2412485
17 Jan 2024 20:36:39.416    17 Jan 2024 21:09:30.603      1971.1877454    Earth           Umbra       408           1971.1877454
17 Jan 2024 22:15:14.806    17 Jan 2024 22:48:05.938      1971.1320410    Earth           Umbra       409           1971.1320410
17 Jan 2024 23:53:50.184    18 Jan 2024 00:26:41.250      1971.0662227    Earth           Umbra       410           1971.0662227
18 Jan 2024 01:32:25.569    18 Jan 2024 02:05:16.569      1970.9996586    Earth           Umbra       411           1970.9996586
18 Jan 2024 03:11:01.008    18 Jan 2024 03:43:51.947      1970.9386419    Earth           Umbra       412           1970.9386419
18 Jan 2024 04:49:36.517    18 Jan 2024 05:22:27.393      1970.8756500    Earth           Umbra       413           1970.8756500
18 Jan 2024 06:28:12.025    18 Jan 2024 07:01:02.827      1970.8013196    Earth           Umbra       414           1970.8013196
18 Jan 2024 08:06:47.455    18 Jan 2024 08:39:38.174      1970.7191749    Earth           Umbra       415           1970.7191749
18 Jan 2024 09:45:22.821    18 Jan 2024 10:18:13.466      1970.6454401    Earth           Umbra       416           1970.6454401
18 Jan 2024 11:23:58.186    18 Jan 2024 11:56:48.778      1970.5918241    Earth           Umbra       417           1970.5918241
18 Jan 2024 13:02:33.587    18 Jan 2024 13:35:24.135      1970.5476789    Earth           Umbra       418           1970.5476789
18 Jan 2024 14:41:09.044    18 Jan 2024 15:13:59.532      1970.4888122    Earth           Umbra       419           1970.4888122
18 Jan 2024 16:19:44.557    18 Jan 2024 16:52:34.966      1970.4092578    Earth           Umbra       420           1970.4092578
18 Jan 2024 17:58:20.075    18 Jan 2024 18:31:10.406      1970.3304640    Earth           Umbra       421           1970.3304640
18 Jan 2024 19:36:55.535    18 Jan 2024 20:09:45.806      1970.2703805    Earth           Umbra       422           1970.2703805
18 Jan 2024 21:15:30.934    18 Jan 2024 21:48:21.154      1970.2198389    Earth           Umbra       423           1970.2198389
18 Jan 2024 22:54:06.309    18 Jan 2024 23:26:56.470      1970.1613616    Earth           Umbra       424           1970.1613616
19 Jan 2024 00:32:41.676    19 Jan 2024 01:05:31.772      1970.0951536    Earth           Umbra       425           1970.0951536
19 Jan 2024 02:11:17.067    19 Jan 2024 02:44:07.100      1970.0322293    Earth           Umbra       426           1970.0322293
19 Jan 2024 03:49:52.528    19 Jan 2024 04:22:42.501      1969.9733346    Earth           Umbra       427           1969.9733346
19 Jan 2024 05:28:28.040    19 Jan 2024 06:01:17.948      1969.9080557    Earth           Umbra       428           1969.9080557
19 Jan 2024 07:07:03.512    19 Jan 2024 07:39:53.343      1969.8308448    Earth           Umbra       429           1969.8308448
19 Jan 2024 08:45:38.900    19 Jan 2024 09:18:28.651      1969.7512426    Earth           Umbra       430           1969.7512426
19 Jan 2024 10:24:14.249    19 Jan 2024 10:57:03.936      1969.6864588    Earth           Umbra       431           1969.6864588
19 Jan 2024 12:02:49.617    19 Jan 2024 12:35:39.257      1969.6406719    Earth           Umbra       432           1969.6406719
19 Jan 2024 13:41:25.028    19 Jan 2024 14:14:14.623      1969.5947945    Earth           Umbra       433           1969.5947945
19 Jan 2024 15:20:00.500    19 Jan 2024 15:52:50.028      1969.5279912    Earth           Umbra       434           1969.5279912
19 Jan 2024 16:58:36.015    19 Jan 2024 17:31:25.462      1969.4467485    Earth           Umbra       435           1969.4467485
19 Jan 2024 18:37:11.506    19 Jan 2024 19:10:00.883      1969.3761171    Earth           Umbra       436           1969.3761171
19 Jan 2024 20:15:46.929    19 Jan 2024 20:48:36.253      1969.3238385    Earth           Umbra       437           1969.3238385
19 Jan 2024 21:54:22.305    19 Jan 2024 22:27:11.579      1969.2732576    Earth           Umbra       438           1969.2732576
19 Jan 2024 23:32:57.666    20 Jan 2024 00:05:46.878      1969.2121391    Earth           Umbra       439           1969.2121391
20 Jan 2024 01:11:33.028    20 Jan 2024 01:44:22.176      1969.1476029    Earth           Umbra       440           1969.1476029
20 Jan 2024 02:50:08.433    20 Jan 2024 03:22:57.522      1969.0885840    Earth           Umbra       441           1969.0885840
20 Jan 2024 04:28:43.913    20 Jan 2024 05:01:32.943      1969.0301583    Earth           Umbra       442           1969.0301583
20 Jan 2024 06:07:19.411    20 Jan 2024 06:40:08.373      1968.9617299    Earth           Umbra       443           1968.9617299
20 Jan 2024 07:45:54.840    20 Jan 2024 08:18:43.724      1968.8832404    Earth           Umbra       444           1968.8832404
20 Jan 2024 09:24:30.195    20 Jan 2024 09:57:19.005      1968.8091517    Earth           Umbra       445           1968.8091517
20 Jan 2024 11:03:05.538    20 Jan 2024 11:35:54.292      1968.7542659    Earth           Umbra       446           1968.7542659
20 Jan 2024 12:41:40.911    20 Jan 2024 13:14:29.624      1968.7132234    Earth           Umbra       447           1968.7132234
20 Jan 2024 14:20:16.335    20 Jan 2024 14:53:04.997      1968.6619968    Earth           Umbra       448           1968.6619968
20 Jan 2024 15:58:51.821    20 Jan 2024 16:31:40.409      1968.5883711    Earth           Umbra       449           1968.5883711
20 Jan 2024 17:37:27.326    20 Jan 2024 18:10:15.836      1968.5100061    Earth           Umbra       450           1968.5100061
20 Jan 2024 19:16:02.782    20 Jan 2024 19:48:51.231      1968.4491271    Earth           Umbra       451           1968.4491271
20 Jan 2024 20:54:38.172    20 Jan 2024 21:27:26.574      1968.4018387    Earth           Umbra       452           1968.4018387
20 Jan 2024 22:33:13.531    20 Jan 2024 23:06:01.880      1968.3491336    Earth           Umbra       453           1968.3491336
21 Jan 2024 00:11:48.880    21 Jan 2024 00:44:37.166      1968.2867377    Earth           Umbra       454           1968.2867377
21 Jan 2024 01:50:24.243    21 Jan 2024 02:23:12.469      1968.2255647    Earth           Umbra       455           1968.2255647
21 Jan 2024 03:28:59.668    21 Jan 2024 04:01:47.838      1968.1697312    Earth           Umbra       456           1968.1697312
21 Jan 2024 05:07:35.157    21 Jan 2024 05:40:23.268      1968.1100850    Earth           Umbra       457           1968.1100850
21 Jan 2024 06:46:10.627    21 Jan 2024 07:18:58.665      1968.0385319    Earth           Umbra       458           1968.0385319
21 Jan 2024 08:24:46.013    21 Jan 2024 08:57:33.974      1967.9611975    Earth           Umbra       459           1967.9611975
21 Jan 2024 10:03:21.345    21 Jan 2024 10:36:09.241      1967.8952680    Earth           Umbra       460           1967.8952680
21 Jan 2024 11:41:56.687    21 Jan 2024 12:14:44.537      1967.8496116    Earth           Umbra       461           1967.8496116
21 Jan 2024 13:20:32.069    21 Jan 2024 13:53:19.878      1967.8092800    Earth           Umbra       462           1967.8092800
21 Jan 2024 14:59:07.509    21 Jan 2024 15:31:55.260      1967.7505290    Earth           Umbra       463           1967.7505290
