SolarAng/Versiones antiguas/SolarAng1/Runs/SAOCOM_EpMar00-SMA6994-ECC0001386-INC98.0-RAAN220.0-AOP90.0-TA270.2937_NadE100-V001/Eclipse-SAOCOM_EpMar00-SMA6994-ECC0001386-INC98.0-RAAN220.0-AOP90.0-TA270.2937_NadE100-V001.txt

Spacecraft: Sat

Start Time (UTC)            Stop Time (UTC)               Duration (s)    Occ Body        Type        Event Number  Total Duration (s)
21 Mar 2023 00:00:00.000    21 Mar 2023 00:17:09.247      1029.2471029    Earth           Umbra       1             1029.2471029
21 Mar 2023 01:23:15.883    21 Mar 2023 01:54:05.424      1849.5412787    Earth           Umbra       2             1849.5412787
21 Mar 2023 03:00:12.198    21 Mar 2023 03:31:01.537      1849.3390113    Earth           Umbra       3             1849.3390113
21 Mar 2023 04:37:08.467    21 Mar 2023 05:07:57.617      1849.1498675    Earth           Umbra       4             1849.1498675
21 Mar 2023 06:14:04.730    21 Mar 2023 06:44:53.696      1848.9656560    Earth           Umbra       5             1848.9656560
21 Mar 2023 07:51:01.066    21 Mar 2023 08:21:49.829      1848.7637218    Earth           Umbra       6             1848.7637218
21 Mar 2023 09:27:57.493    21 Mar 2023 09:58:46.048      1848.5552865    Earth           Umbra       7             1848.5552865
21 Mar 2023 11:04:53.917    21 Mar 2023 11:35:42.288      1848.3707321    Earth           Umbra       8             1848.3707321
21 Mar 2023 12:41:50.245    21 Mar 2023 13:12:38.460      1848.2151565    Earth           Umbra       9             1848.2151565
21 Mar 2023 14:18:46.499    21 Mar 2023 14:49:34.564      1848.0650873    Earth           Umbra       10            1848.0650873
21 Mar 2023 15:55:42.762    21 Mar 2023 16:26:30.656      1847.8941813    Earth           Umbra       11            1847.8941813
21 Mar 2023 17:32:39.067    21 Mar 2023 18:03:26.761      1847.6932269    Earth           Umbra       12            1847.6932269
21 Mar 2023 19:09:35.410    21 Mar 2023 19:40:22.892      1847.4823848    Earth           Umbra       13            1847.4823848
21 Mar 2023 20:46:31.789    21 Mar 2023 21:17:19.087      1847.2978939    Earth           Umbra       14            1847.2978939
21 Mar 2023 22:23:28.194    21 Mar 2023 22:54:15.339      1847.1459041    Earth           Umbra       15            1847.1459041
22 Mar 2023 00:00:24.588    22 Mar 2023 00:31:11.576      1846.9883760    Earth           Umbra       16            1846.9883760
22 Mar 2023 01:37:20.943    22 Mar 2023 02:08:07.741      1846.7980515    Earth           Umbra       17            1846.7980515
22 Mar 2023 03:14:17.249    22 Mar 2023 03:45:03.846      1846.5965536    Earth           Umbra       18            1846.5965536
22 Mar 2023 04:51:13.512    22 Mar 2023 05:21:59.922      1846.4099803    Earth           Umbra       19            1846.4099803
22 Mar 2023 06:28:09.779    22 Mar 2023 06:58:56.004      1846.2245562    Earth           Umbra       20            1846.2245562
22 Mar 2023 08:05:06.128    22 Mar 2023 08:35:52.148      1846.0203306    Earth           Umbra       21            1846.0203306
22 Mar 2023 09:42:02.561    22 Mar 2023 10:12:48.375      1845.8140003    Earth           Umbra       22            1845.8140003
22 Mar 2023 11:18:58.974    22 Mar 2023 11:49:44.608      1845.6347013    Earth           Umbra       23            1845.6347013
22 Mar 2023 12:55:55.286    22 Mar 2023 13:26:40.768      1845.4822753    Earth           Umbra       24            1845.4822753
22 Mar 2023 14:32:51.535    22 Mar 2023 15:03:36.866      1845.3309364    Earth           Umbra       25            1845.3309364
22 Mar 2023 16:09:47.802    22 Mar 2023 16:40:32.957      1845.1557708    Earth           Umbra       26            1845.1557708
22 Mar 2023 17:46:44.111    22 Mar 2023 18:17:29.063      1844.9515487    Earth           Umbra       27            1844.9515487
22 Mar 2023 19:23:40.457    22 Mar 2023 19:54:25.200      1844.7428182    Earth           Umbra       28            1844.7428182
22 Mar 2023 21:00:36.840    22 Mar 2023 21:31:21.404      1844.5644726    Earth           Umbra       29            1844.5644726
22 Mar 2023 22:37:33.244    22 Mar 2023 23:08:17.659      1844.4150533    Earth           Umbra       30            1844.4150533
23 Mar 2023 00:14:29.632    23 Mar 2023 00:45:13.886      1844.2535358    Earth           Umbra       31            1844.2535358
23 Mar 2023 01:51:25.979    23 Mar 2023 02:22:10.039      1844.0594675    Earth           Umbra       32            1844.0594675
23 Mar 2023 03:28:22.278    23 Mar 2023 03:59:06.137      1843.8596248    Earth           Umbra       33            1843.8596248
23 Mar 2023 05:05:18.535    23 Mar 2023 05:36:02.211      1843.6754671    Earth           Umbra       34            1843.6754671
23 Mar 2023 06:42:14.808    23 Mar 2023 07:12:58.296      1843.4884638    Earth           Umbra       35            1843.4884638
23 Mar 2023 08:19:11.170    23 Mar 2023 08:49:54.453      1843.2825006    Earth           Umbra       36            1843.2825006
23 Mar 2023 09:56:07.607    23 Mar 2023 10:26:50.686      1843.0791784    Earth           Umbra       37            1843.0791784
23 Mar 2023 11:33:04.006    23 Mar 2023 12:03:46.912      1842.9053200    Earth           Umbra       38            1842.9053200
23 Mar 2023 13:10:00.303    23 Mar 2023 13:40:43.059      1842.7555883    Earth           Umbra       39            1842.7555883
23 Mar 2023 14:46:56.549    23 Mar 2023 15:17:39.152      1842.6025157    Earth           Umbra       40            1842.6025157
23 Mar 2023 16:23:52.820    23 Mar 2023 16:54:35.243      1842.4230809    Earth           Umbra       41            1842.4230809
23 Mar 2023 18:00:49.134    23 Mar 2023 18:31:31.350      1842.2163555    Earth           Umbra       42            1842.2163555
23 Mar 2023 19:37:45.483    23 Mar 2023 20:08:27.494      1842.0108202    Earth           Umbra       43            1842.0108202
23 Mar 2023 21:14:41.869    23 Mar 2023 21:45:23.708      1841.8387921    Earth           Umbra       44            1841.8387921
23 Mar 2023 22:51:38.272    23 Mar 2023 23:22:19.963      1841.6910428    Earth           Umbra       45            1841.6910428
24 Mar 2023 00:28:34.654    24 Mar 2023 00:59:16.179      1841.5251386    Earth           Umbra       46            1841.5251386
24 Mar 2023 02:05:30.994    24 Mar 2023 02:36:12.322      1841.3281934    Earth           Umbra       47            1841.3281934
24 Mar 2023 03:42:27.283    24 Mar 2023 04:13:08.414      1841.1307826    Earth           Umbra       48            1841.1307826
24 Mar 2023 05:19:23.537    24 Mar 2023 05:50:04.485      1840.9487632    Earth           Umbra       49            1840.9487632
24 Mar 2023 06:56:19.817    24 Mar 2023 07:27:00.577      1840.7599110    Earth           Umbra       50            1840.7599110
24 Mar 2023 08:33:16.193    24 Mar 2023 09:03:56.746      1840.5528974    Earth           Umbra       51            1840.5528974
24 Mar 2023 10:10:12.631    24 Mar 2023 10:40:52.984      1840.3534335    Earth           Umbra       52            1840.3534335
24 Mar 2023 11:47:09.015    24 Mar 2023 12:17:49.200      1840.1850807    Earth           Umbra       53            1840.1850807
24 Mar 2023 13:24:05.298    24 Mar 2023 13:54:45.336      1840.0375477    Earth           Umbra       54            1840.0375477
24 Mar 2023 15:01:01.543    24 Mar 2023 15:31:41.425      1839.8823229    Earth           Umbra       55            1839.8823229
24 Mar 2023 16:37:57.819    24 Mar 2023 17:08:37.517      1839.6987234    Earth           Umbra       56            1839.6987234
24 Mar 2023 18:14:54.136    24 Mar 2023 18:45:33.626      1839.4903714    Earth           Umbra       57            1839.4903714
24 Mar 2023 19:51:50.489    24 Mar 2023 20:22:29.778      1839.2890671    Earth           Umbra       58            1839.2890671
24 Mar 2023 21:28:46.878    24 Mar 2023 21:59:26.001      1839.1233267    Earth           Umbra       59            1839.1233267
24 Mar 2023 23:05:43.279    24 Mar 2023 23:36:22.255      1838.9763089    Earth           Umbra       60            1838.9763089
25 Mar 2023 00:42:39.655    25 Mar 2023 01:13:18.460      1838.8058213    Earth           Umbra       61            1838.8058213
25 Mar 2023 02:19:35.986    25 Mar 2023 02:50:14.593      1838.6069794    Earth           Umbra       62            1838.6069794
25 Mar 2023 03:56:32.267    25 Mar 2023 04:27:10.680      1838.4126408    Earth           Umbra       63            1838.4126408
25 Mar 2023 05:33:28.518    25 Mar 2023 06:04:06.750      1838.2323885    Earth           Umbra       64            1838.2323885
25 Mar 2023 07:10:24.807    25 Mar 2023 07:41:02.849      1838.0415413    Earth           Umbra       65            1838.0415413
25 Mar 2023 08:47:21.196    25 Mar 2023 09:17:59.030      1837.8342762    Earth           Umbra       66            1837.8342762
25 Mar 2023 10:24:17.632    25 Mar 2023 10:54:55.272      1837.6394479    Earth           Umbra       67            1837.6394479
25 Mar 2023 12:01:14.001    25 Mar 2023 12:31:51.478      1837.4765474    Earth           Umbra       68            1837.4765474
25 Mar 2023 13:38:10.272    25 Mar 2023 14:08:47.602      1837.3306951    Earth           Umbra       69            1837.3306951
25 Mar 2023 15:15:06.516    25 Mar 2023 15:45:43.689      1837.1729573    Earth           Umbra       70            1837.1729573
25 Mar 2023 16:52:02.797    25 Mar 2023 17:22:39.783      1836.9854177    Earth           Umbra       71            1836.9854177
25 Mar 2023 18:28:59.118    25 Mar 2023 18:59:35.895      1836.7764189    Earth           Umbra       72            1836.7764189
25 Mar 2023 20:05:55.475    25 Mar 2023 20:36:32.056      1836.5802965    Earth           Umbra       73            1836.5802965
25 Mar 2023 21:42:51.867    25 Mar 2023 22:13:28.287      1836.4206143    Earth           Umbra       74            1836.4206143
25 Mar 2023 23:19:48.265    25 Mar 2023 23:50:24.538      1836.2733890    Earth           Umbra       75            1836.2733890
26 Mar 2023 00:56:44.634    26 Mar 2023 01:27:20.732      1836.0983428    Earth           Umbra       76            1836.0983428
26 Mar 2023 02:33:40.957    26 Mar 2023 03:04:16.856      1835.8986601    Earth           Umbra       77            1835.8986601
26 Mar 2023 04:10:37.230    26 Mar 2023 04:41:12.938      1835.7078809    Earth           Umbra       78            1835.7078809
26 Mar 2023 05:47:33.479    26 Mar 2023 06:18:09.008      1835.5289562    Earth           Umbra       79            1835.5289562
26 Mar 2023 07:24:29.780    26 Mar 2023 07:55:05.116      1835.3361141    Earth           Umbra       80            1835.3361141
26 Mar 2023 09:01:26.180    26 Mar 2023 09:32:01.310      1835.1294846    Earth           Umbra       81            1835.1294846
26 Mar 2023 10:38:22.612    26 Mar 2023 11:08:57.552      1834.9399777    Earth           Umbra       82            1834.9399777
26 Mar 2023 12:15:18.965    26 Mar 2023 12:45:53.747      1834.7823647    Earth           Umbra       83            1834.7823647
26 Mar 2023 13:52:15.224    26 Mar 2023 14:22:49.862      1834.6376685    Earth           Umbra       84            1834.6376685
26 Mar 2023 15:29:11.471    26 Mar 2023 15:59:45.948      1834.4771260    Earth           Umbra       85            1834.4771260
26 Mar 2023 17:06:07.757    26 Mar 2023 17:36:42.043      1834.2860004    Earth           Umbra       86            1834.2860004
26 Mar 2023 18:43:04.081    26 Mar 2023 19:13:38.159      1834.0774142    Earth           Umbra       87            1834.0774142
26 Mar 2023 20:20:00.442    26 Mar 2023 20:50:34.329      1833.8873076    Earth           Umbra       88            1833.8873076
26 Mar 2023 21:56:56.835    26 Mar 2023 22:27:30.569      1833.7332672    Earth           Umbra       89            1833.7332672
26 Mar 2023 23:33:53.230    27 Mar 2023 00:04:26.815      1833.5849446    Earth           Umbra       90            1833.5849446
27 Mar 2023 01:10:49.592    27 Mar 2023 01:41:22.997      1833.4055793    Earth           Umbra       91            1833.4055793
27 Mar 2023 02:47:45.907    27 Mar 2023 03:18:19.113      1833.2061471    Earth           Umbra       92            1833.2061471
27 Mar 2023 04:24:42.172    27 Mar 2023 04:55:15.191      1833.0192485    Earth           Umbra       93            1833.0192485
27 Mar 2023 06:01:38.422    27 Mar 2023 06:32:11.263      1832.8411848    Earth           Umbra       94            1832.8411848
27 Mar 2023 07:38:34.735    27 Mar 2023 08:09:07.381      1832.6464979    Earth           Umbra       95            1832.6464979
27 Mar 2023 09:15:31.145    27 Mar 2023 09:46:03.587      1832.4414554    Earth           Umbra       96            1832.4414554
27 Mar 2023 10:52:27.571    27 Mar 2023 11:22:59.829      1832.2578417    Earth           Umbra       97            1832.2578417
27 Mar 2023 12:29:23.906    27 Mar 2023 12:59:56.012      1832.1052588    Earth           Umbra       98            1832.1052588
27 Mar 2023 14:06:20.157    27 Mar 2023 14:36:52.118      1831.9611975    Earth           Umbra       99            1831.9611975
27 Mar 2023 15:43:16.406    27 Mar 2023 16:13:48.204      1831.7976378    Earth           Umbra       100           1831.7976378
27 Mar 2023 17:20:12.697    27 Mar 2023 17:50:44.300      1831.6034099    Earth           Umbra       101           1831.6034099
27 Mar 2023 18:57:09.025    27 Mar 2023 19:27:40.421      1831.3963582    Earth           Umbra       102           1831.3963582
27 Mar 2023 20:34:05.390    27 Mar 2023 21:04:36.603      1831.2129489    Earth           Umbra       103           1831.2129489
27 Mar 2023 22:11:01.784    27 Mar 2023 22:41:32.848      1831.0639659    Earth           Umbra       104           1831.0639659
27 Mar 2023 23:47:58.175    28 Mar 2023 00:18:29.088      1830.9137442    Earth           Umbra       105           1830.9137442
28 Mar 2023 01:24:54.530    28 Mar 2023 01:55:25.260      1830.7305190    Earth           Umbra       106           1830.7305190
28 Mar 2023 03:01:50.836    28 Mar 2023 03:32:21.368      1830.5324154    Earth           Umbra       107           1830.5324154
28 Mar 2023 04:38:47.094    28 Mar 2023 05:09:17.444      1830.3495496    Earth           Umbra       108           1830.3495496
28 Mar 2023 06:15:43.346    28 Mar 2023 06:46:13.518      1830.1718844    Earth           Umbra       109           1830.1718844
28 Mar 2023 07:52:39.672    28 Mar 2023 08:23:09.648      1829.9756690    Earth           Umbra       110           1829.9756690
28 Mar 2023 09:29:36.092    28 Mar 2023 10:00:05.865      1829.7731898    Earth           Umbra       111           1829.7731898
28 Mar 2023 11:06:32.508    28 Mar 2023 11:37:02.104      1829.5959194    Earth           Umbra       112           1829.5959194
28 Mar 2023 12:43:28.827    28 Mar 2023 13:13:58.275      1829.4480234    Earth           Umbra       113           1829.4480234
28 Mar 2023 14:20:25.071    28 Mar 2023 14:50:54.375      1829.3040925    Earth           Umbra       114           1829.3040925
28 Mar 2023 15:57:21.323    28 Mar 2023 16:27:50.461      1829.1373940    Earth           Umbra       115           1829.1373940
28 Mar 2023 17:34:17.619    28 Mar 2023 18:04:46.559      1828.9406779    Earth           Umbra       116           1828.9406779
28 Mar 2023 19:11:13.950    28 Mar 2023 19:41:42.687      1828.7363077    Earth           Umbra       117           1828.7363077
28 Mar 2023 20:48:10.319    28 Mar 2023 21:18:38.879      1828.5601136    Earth           Umbra       118           1828.5601136
28 Mar 2023 22:25:06.714    28 Mar 2023 22:55:35.130      1828.4154544    Earth           Umbra       119           1828.4154544
29 Mar 2023 00:02:03.100    29 Mar 2023 00:32:31.362      1828.2626628    Earth           Umbra       120           1828.2626628
29 Mar 2023 01:38:59.447    29 Mar 2023 02:09:27.523      1828.0762316    Earth           Umbra       121           1828.0762316
29 Mar 2023 03:15:55.745    29 Mar 2023 03:46:23.625      1827.8804857    Earth           Umbra       122           1827.8804857
29 Mar 2023 04:52:51.997    29 Mar 2023 05:23:19.699      1827.7016400    Earth           Umbra       123           1827.7016400
29 Mar 2023 06:29:48.253    29 Mar 2023 07:00:15.777      1827.5239532    Earth           Umbra       124           1827.5239532
29 Mar 2023 08:06:44.593    29 Mar 2023 08:37:11.920      1827.3266785    Earth           Umbra       125           1827.3266785
29 Mar 2023 09:43:41.019    29 Mar 2023 10:14:08.147      1827.1277420    Earth           Umbra       126           1827.1277420
29 Mar 2023 11:20:37.424    29 Mar 2023 11:51:04.381      1826.9571331    Earth           Umbra       127           1826.9571331
29 Mar 2023 12:57:33.727    29 Mar 2023 13:28:00.540      1826.8135121    Earth           Umbra       128           1826.8135121
29 Mar 2023 14:34:29.966    29 Mar 2023 15:04:56.635      1826.6692377    Earth           Umbra       129           1826.6692377
29 Mar 2023 16:11:26.223    29 Mar 2023 16:41:52.722      1826.4993774    Earth           Umbra       130           1826.4993774
29 Mar 2023 17:48:22.522    29 Mar 2023 18:18:48.823      1826.3009178    Earth           Umbra       131           1826.3009178
29 Mar 2023 19:25:18.858    29 Mar 2023 19:55:44.958      1826.1003735    Earth           Umbra       132           1826.1003735
29 Mar 2023 21:02:15.230    29 Mar 2023 21:32:41.162      1825.9317134    Earth           Umbra       133           1825.9317134
29 Mar 2023 22:39:11.625    29 Mar 2023 23:09:37.416      1825.7905350    Earth           Umbra       134           1825.7905350
30 Mar 2023 00:16:08.006    30 Mar 2023 00:46:33.640      1825.6346665    Earth           Umbra       135           1825.6346665
30 Mar 2023 01:53:04.345    30 Mar 2023 02:23:29.791      1825.4458596    Earth           Umbra       136           1825.4458596
30 Mar 2023 03:30:00.634    30 Mar 2023 04:00:25.888      1825.2534079    Earth           Umbra       137           1825.2534079
30 Mar 2023 05:06:56.881    30 Mar 2023 05:37:21.959      1825.0784217    Earth           Umbra       138           1825.0784217
30 Mar 2023 06:43:53.143    30 Mar 2023 07:14:18.044      1824.9003637    Earth           Umbra       139           1824.9003637
30 Mar 2023 08:20:49.498    30 Mar 2023 08:51:14.200      1824.7026467    Earth           Umbra       140           1824.7026467
30 Mar 2023 09:57:45.927    30 Mar 2023 10:28:10.436      1824.5081978    Earth           Umbra       141           1824.5081978
30 Mar 2023 11:34:42.319    30 Mar 2023 12:05:06.664      1824.3444382    Earth           Umbra       142           1824.3444382
30 Mar 2023 13:11:38.607    30 Mar 2023 13:42:02.811      1824.2046243    Earth           Umbra       143           1824.2046243
30 Mar 2023 14:48:34.843    30 Mar 2023 15:18:58.902      1824.0595773    Earth           Umbra       144           1824.0595773
30 Mar 2023 16:25:31.104    30 Mar 2023 16:55:54.991      1823.8866389    Earth           Umbra       145           1823.8866389
30 Mar 2023 18:02:27.408    30 Mar 2023 18:32:51.095      1823.6872957    Earth           Umbra       146           1823.6872957
30 Mar 2023 19:39:23.748    30 Mar 2023 20:09:47.239      1823.4916847    Earth           Umbra       147           1823.4916847
30 Mar 2023 21:16:20.124    30 Mar 2023 21:46:43.454      1823.3306789    Earth           Umbra       148           1823.3306789
30 Mar 2023 22:53:16.518    30 Mar 2023 23:23:39.710      1823.1920647    Earth           Umbra       149           1823.1920647
31 Mar 2023 00:30:12.892    31 Mar 2023 01:00:35.925      1823.0328022    Earth           Umbra       150           1823.0328022
31 Mar 2023 02:07:09.224    31 Mar 2023 02:37:32.067      1822.8425934    Earth           Umbra       151           1822.8425934
31 Mar 2023 03:44:05.505    31 Mar 2023 04:14:28.159      1822.6542464    Earth           Umbra       152           1822.6542464
31 Mar 2023 05:21:01.747    31 Mar 2023 05:51:24.230      1822.4828338    Earth           Umbra       153           1822.4828338
31 Mar 2023 06:57:58.018    31 Mar 2023 07:28:20.322      1822.3041603    Earth           Umbra       154           1822.3041603
31 Mar 2023 08:34:54.386    31 Mar 2023 09:05:16.493      1822.1067467    Earth           Umbra       155           1822.1067467
31 Mar 2023 10:11:50.817    31 Mar 2023 10:42:12.735      1821.9176733    Earth           Umbra       156           1821.9176733
31 Mar 2023 11:48:47.194    31 Mar 2023 12:19:08.955      1821.7608153    Earth           Umbra       157           1821.7608153
31 Mar 2023 13:25:43.468    31 Mar 2023 13:56:05.092      1821.6243039    Earth           Umbra       158           1821.6243039
31 Mar 2023 15:02:39.703    31 Mar 2023 15:33:01.181      1821.4781049    Earth           Umbra       159           1821.4781049
31 Mar 2023 16:39:35.969    31 Mar 2023 17:09:57.271      1821.3022905    Earth           Umbra       160           1821.3022905
31 Mar 2023 18:16:32.277    31 Mar 2023 18:46:53.380      1821.1030261    Earth           Umbra       161           1821.1030261
31 Mar 2023 19:53:28.620    31 Mar 2023 20:23:49.534      1820.9133888    Earth           Umbra       162           1820.9133888
31 Mar 2023 21:30:25.000    31 Mar 2023 22:00:45.759      1820.7599434    Earth           Umbra       163           1820.7599434
31 Mar 2023 23:07:21.392    31 Mar 2023 23:37:42.015      1820.6229461    Earth           Umbra       164           1820.6229461
01 Apr 2023 00:44:17.760    01 Apr 2023 01:14:38.220      1820.4601883    Earth           Umbra       165           1820.4601883
01 Apr 2023 02:21:14.084    01 Apr 2023 02:51:34.354      1820.2696530    Earth           Umbra       166           1820.2696530
01 Apr 2023 03:58:10.356    01 Apr 2023 04:28:30.442      1820.0860698    Earth           Umbra       167           1820.0860698
01 Apr 2023 05:35:06.596    01 Apr 2023 06:05:26.514      1819.9178432    Earth           Umbra       168           1819.9178432
01 Apr 2023 07:12:02.876    01 Apr 2023 07:42:22.615      1819.7384376    Earth           Umbra       169           1819.7384376
01 Apr 2023 08:48:59.258    01 Apr 2023 09:19:18.800      1819.5421836    Earth           Umbra       170           1819.5421836
01 Apr 2023 10:25:55.688    01 Apr 2023 10:56:15.047      1819.3592853    Earth           Umbra       171           1819.3592853
01 Apr 2023 12:02:52.049    01 Apr 2023 12:33:11.258      1819.2092606    Earth           Umbra       172           1819.2092606
01 Apr 2023 13:39:48.310    01 Apr 2023 14:10:07.386      1819.0755207    Earth           Umbra       173           1819.0755207
01 Apr 2023 15:16:44.546    01 Apr 2023 15:47:03.473      1818.9278544    Earth           Umbra       174           1818.9278544
01 Apr 2023 16:53:40.817    01 Apr 2023 17:23:59.567      1818.7494883    Earth           Umbra       175           1818.7494883
01 Apr 2023 18:30:37.129    01 Apr 2023 19:00:55.680      1818.5513590    Earth           Umbra       176           1818.5513590
01 Apr 2023 20:07:33.476    01 Apr 2023 20:37:51.845      1818.3686217    Earth           Umbra       177           1818.3686217
01 Apr 2023 21:44:29.858    01 Apr 2023 22:14:48.081      1818.2224443    Earth           Umbra       178           1818.2224443
01 Apr 2023 23:21:26.248    01 Apr 2023 23:51:44.334      1818.0861304    Earth           Umbra       179           1818.0861304
02 Apr 2023 00:58:22.610    02 Apr 2023 01:28:40.530      1817.9199964    Earth           Umbra       180           1817.9199964
02 Apr 2023 02:35:18.926    02 Apr 2023 03:05:36.656      1817.7302742    Earth           Umbra       181           1817.7302742
02 Apr 2023 04:12:15.190    02 Apr 2023 04:42:32.742      1817.5519446    Earth           Umbra       182           1817.5519446
02 Apr 2023 05:49:11.428    02 Apr 2023 06:19:28.815      1817.3864491    Earth           Umbra       183           1817.3864491
02 Apr 2023 07:26:07.720    02 Apr 2023 07:56:24.927      1817.2063392    Earth           Umbra       184           1817.2063392
02 Apr 2023 09:03:04.114    02 Apr 2023 09:33:21.126      1817.0121804    Earth           Umbra       185           1817.0121804
02 Apr 2023 10:40:00.540    02 Apr 2023 11:10:17.376      1816.8361532    Earth           Umbra       186           1816.8361532
02 Apr 2023 12:16:56.884    02 Apr 2023 12:47:13.577      1816.6927739    Earth           Umbra       187           1816.6927739
02 Apr 2023 13:53:53.135    02 Apr 2023 14:24:09.696      1816.5612725    Earth           Umbra       188           1816.5612725
02 Apr 2023 15:30:49.372    02 Apr 2023 16:01:05.784      1816.4119017    Earth           Umbra       189           1816.4119017
02 Apr 2023 17:07:45.649    02 Apr 2023 17:38:01.881      1816.2314325    Earth           Umbra       190           1816.2314325
02 Apr 2023 18:44:41.964    02 Apr 2023 19:14:58.000      1816.0355565    Earth           Umbra       191           1816.0355565
02 Apr 2023 20:21:38.316    02 Apr 2023 20:51:54.177      1815.8605128    Earth           Umbra       192           1815.8605128
02 Apr 2023 21:58:34.700    02 Apr 2023 22:28:50.421      1815.7211154    Earth           Umbra       193           1815.7211154
02 Apr 2023 23:35:31.087    03 Apr 2023 00:05:46.672      1815.5846151    Earth           Umbra       194           1815.5846151
03 Apr 2023 01:12:27.442    03 Apr 2023 01:42:42.858      1815.4154448    Earth           Umbra       195           1815.4154448
03 Apr 2023 02:49:23.750    03 Apr 2023 03:19:38.977      1815.2276931    Earth           Umbra       196           1815.2276931
03 Apr 2023 04:26:20.006    03 Apr 2023 04:56:35.060      1815.0549263    Earth           Umbra       197           1815.0549263
03 Apr 2023 06:03:16.245    03 Apr 2023 06:33:31.137      1814.8916776    Earth           Umbra       198           1814.8916776
03 Apr 2023 07:40:12.550    03 Apr 2023 08:10:27.261      1814.7110475    Earth           Umbra       199           1814.7110475
03 Apr 2023 09:17:08.954    03 Apr 2023 09:47:23.474      1814.5199734    Earth           Umbra       200           1814.5199734
03 Apr 2023 10:54:05.374    03 Apr 2023 11:24:19.725      1814.3513890    Earth           Umbra       201           1814.3513890
03 Apr 2023 12:31:01.701    03 Apr 2023 13:01:15.916      1814.2143637    Earth           Umbra       202           1814.2143637
03 Apr 2023 14:07:57.943    03 Apr 2023 14:38:12.028      1814.0845767    Earth           Umbra       203           1814.0845767
03 Apr 2023 15:44:54.183    03 Apr 2023 16:15:08.117      1813.9333453    Earth           Umbra       204           1813.9333453
03 Apr 2023 17:21:50.465    03 Apr 2023 17:52:04.217      1813.7513508    Earth           Umbra       205           1813.7513508
03 Apr 2023 18:58:46.784    03 Apr 2023 19:29:00.343      1813.5588830    Earth           Umbra       206           1813.5588830
03 Apr 2023 20:35:43.140    03 Apr 2023 21:05:56.532      1813.3921613    Earth           Umbra       207           1813.3921613
03 Apr 2023 22:12:39.526    03 Apr 2023 22:42:52.785      1813.2588915    Earth           Umbra       208           1813.2588915
03 Apr 2023 23:49:35.909    04 Apr 2023 00:19:49.030      1813.1214338    Earth           Umbra       209           1813.1214338
04 Apr 2023 01:26:32.257    04 Apr 2023 01:56:45.207      1812.9497848    Earth           Umbra       210           1812.9497848
04 Apr 2023 03:03:28.556    04 Apr 2023 03:33:41.321      1812.7651307    Earth           Umbra       211           1812.7651307
04 Apr 2023 04:40:24.805    04 Apr 2023 05:10:37.403      1812.5980566    Earth           Umbra       212           1812.5980566
04 Apr 2023 06:17:21.047    04 Apr 2023 06:47:33.484      1812.4365772    Earth           Umbra       213           1812.4365772
04 Apr 2023 07:54:17.366    04 Apr 2023 08:24:29.622      1812.2557713    Earth           Umbra       214           1812.2557713
04 Apr 2023 09:31:13.779    04 Apr 2023 10:01:25.848      1812.0687910    Earth           Umbra       215           1812.0687910
04 Apr 2023 11:08:10.189    04 Apr 2023 11:38:22.097      1811.9080882    Earth           Umbra       216           1811.9080882
04 Apr 2023 12:45:06.500    04 Apr 2023 13:15:18.277      1811.7770407    Earth           Umbra       217           1811.7770407
04 Apr 2023 14:22:02.736    04 Apr 2023 14:52:14.384      1811.6484616    Earth           Umbra       218           1811.6484616
04 Apr 2023 15:58:58.980    04 Apr 2023 16:29:10.475      1811.4953113    Earth           Umbra       219           1811.4953113
04 Apr 2023 17:35:55.266    04 Apr 2023 18:06:06.579      1811.3124904    Earth           Umbra       220           1811.3124904
04 Apr 2023 19:12:51.589    04 Apr 2023 19:43:02.714      1811.1245985    Earth           Umbra       221           1811.1245985
04 Apr 2023 20:49:47.949    04 Apr 2023 21:19:58.916      1810.9666373    Earth           Umbra       222           1810.9666373
04 Apr 2023 22:26:44.336    04 Apr 2023 22:56:55.175      1810.8387031    Earth           Umbra       223           1810.8387031
05 Apr 2023 00:03:40.714    05 Apr 2023 00:33:51.414      1810.6996624    Earth           Umbra       224           1810.6996624
05 Apr 2023 01:40:37.055    05 Apr 2023 02:10:47.582      1810.5262853    Earth           Umbra       225           1810.5262853
05 Apr 2023 03:17:33.346    05 Apr 2023 03:47:43.691      1810.3457887    Earth           Umbra       226           1810.3457887
05 Apr 2023 04:54:29.588    05 Apr 2023 05:24:39.772      1810.1843624    Earth           Umbra       227           1810.1843624
05 Apr 2023 06:31:25.835    05 Apr 2023 07:01:35.859      1810.0242176    Earth           Umbra       228           1810.0242176
05 Apr 2023 08:08:22.168    05 Apr 2023 08:38:32.012      1809.8437336    Earth           Umbra       229           1809.8437336
05 Apr 2023 09:45:18.588    05 Apr 2023 10:15:28.250      1809.6618471    Earth           Umbra       230           1809.6618471
05 Apr 2023 11:22:14.987    05 Apr 2023 11:52:24.496      1809.5093195    Earth           Umbra       231           1809.5093195
05 Apr 2023 12:59:11.282    05 Apr 2023 13:29:20.666      1809.3838025    Earth           Umbra       232           1809.3838025
05 Apr 2023 14:36:07.513    05 Apr 2023 15:06:16.769      1809.2559602    Earth           Umbra       233           1809.2559602
05 Apr 2023 16:13:03.761    05 Apr 2023 16:43:12.862      1809.1009372    Earth           Umbra       234           1809.1009372
05 Apr 2023 17:50:00.052    05 Apr 2023 18:20:08.970      1808.9181115    Earth           Umbra       235           1808.9181115
05 Apr 2023 19:26:56.379    05 Apr 2023 19:57:05.115      1808.7359343    Earth           Umbra       236           1808.7359343
05 Apr 2023 21:03:52.743    05 Apr 2023 21:34:01.330      1808.5869696    Earth           Umbra       237           1808.5869696
05 Apr 2023 22:40:49.130    05 Apr 2023 23:10:57.594      1808.4634755    Earth           Umbra       238           1808.4634755
06 Apr 2023 00:17:45.504    06 Apr 2023 00:47:53.826      1808.3224025    Earth           Umbra       239           1808.3224025
06 Apr 2023 01:54:41.838    06 Apr 2023 02:24:49.986      1808.1482137    Earth           Umbra       240           1808.1482137
06 Apr 2023 03:31:38.119    06 Apr 2023 04:01:46.092      1807.9728240    Earth           Umbra       241           1807.9728240
06 Apr 2023 05:08:34.356    06 Apr 2023 05:38:42.173      1807.8168439    Earth           Umbra       242           1807.8168439
06 Apr 2023 06:45:30.610    06 Apr 2023 07:15:38.268      1807.6576756    Earth           Umbra       243           1807.6576756
06 Apr 2023 08:22:26.958    06 Apr 2023 08:52:34.436      1807.4781598    Earth           Umbra       244           1807.4781598
06 Apr 2023 09:59:23.382    06 Apr 2023 10:29:30.684      1807.3023212    Earth           Umbra       245           1807.3023212
06 Apr 2023 11:36:19.768    06 Apr 2023 12:06:26.926      1807.1581275    Earth           Umbra       246           1807.1581275
06 Apr 2023 13:13:16.048    06 Apr 2023 13:43:23.085      1807.0376324    Earth           Umbra       247           1807.0376324
06 Apr 2023 14:50:12.276    06 Apr 2023 15:20:19.186      1806.9101091    Earth           Umbra       248           1806.9101091
06 Apr 2023 16:27:08.529    06 Apr 2023 16:57:15.282      1806.7533690    Earth           Umbra       249           1806.7533690
06 Apr 2023 18:04:04.825    06 Apr 2023 18:34:11.396      1806.5714643    Earth           Umbra       250           1806.5714643
06 Apr 2023 19:41:01.155    06 Apr 2023 20:11:07.552      1806.3960849    Earth           Umbra       251           1806.3960849
06 Apr 2023 21:17:57.523    06 Apr 2023 21:48:03.779      1806.2561320    Earth           Umbra       252           1806.2561320
06 Apr 2023 22:54:53.910    06 Apr 2023 23:25:00.046      1806.1361232    Earth           Umbra       253           1806.1361232
07 Apr 2023 00:31:50.278    07 Apr 2023 01:01:56.271      1805.9927706    Earth           Umbra       254           1805.9927706
07 Apr 2023 02:08:46.604    07 Apr 2023 02:38:52.423      1805.8188217    Earth           Umbra       255           1805.8188217
07 Apr 2023 03:45:42.877    07 Apr 2023 04:15:48.526      1805.6493441    Earth           Umbra       256           1805.6493441
07 Apr 2023 05:22:39.110    07 Apr 2023 05:52:44.609      1805.4984805    Earth           Umbra       257           1805.4984805
07 Apr 2023 06:59:35.373    07 Apr 2023 07:29:40.713      1805.3400358    Earth           Umbra       258           1805.3400358
07 Apr 2023 08:36:31.735    07 Apr 2023 09:06:36.897      1805.1622575    Earth           Umbra       259           1805.1622575
07 Apr 2023 10:13:28.161    07 Apr 2023 10:43:33.154      1804.9933510    Earth           Umbra       260           1804.9933510
07 Apr 2023 11:50:24.532    07 Apr 2023 12:20:29.389      1804.8575032    Earth           Umbra       261           1804.8575032
07 Apr 2023 13:27:20.798    07 Apr 2023 13:57:25.539      1804.7414897    Earth           Umbra       262           1804.7414897
07 Apr 2023 15:04:17.025    07 Apr 2023 15:34:21.639      1804.6139230    Earth           Umbra       263           1804.6139230
07 Apr 2023 16:41:13.284    07 Apr 2023 17:11:17.739      1804.4557379    Earth           Umbra       264           1804.4557379
07 Apr 2023 18:18:09.583    07 Apr 2023 18:48:13.859      1804.2757732    Earth           Umbra       265           1804.2757732
07 Apr 2023 19:55:05.918    07 Apr 2023 20:25:10.027      1804.1081764    Earth           Umbra       266           1804.1081764
07 Apr 2023 21:32:02.290    07 Apr 2023 22:02:06.267      1803.9770459    Earth           Umbra       267           1803.9770459
07 Apr 2023 23:08:58.675    07 Apr 2023 23:39:02.535      1803.8595454    Earth           Umbra       268           1803.8595454
08 Apr 2023 00:45:55.038    08 Apr 2023 01:15:58.752      1803.7138857    Earth           Umbra       269           1803.7138857
08 Apr 2023 02:22:51.356    08 Apr 2023 02:52:54.897      1803.5413157    Earth           Umbra       270           1803.5413157
08 Apr 2023 03:59:47.620    08 Apr 2023 04:29:50.998      1803.3783907    Earth           Umbra       271           1803.3783907
08 Apr 2023 05:36:43.851    08 Apr 2023 06:06:47.083      1803.2322052    Earth           Umbra       272           1803.2322052
08 Apr 2023 07:13:40.124    08 Apr 2023 07:43:43.198      1803.0743612    Earth           Umbra       273           1803.0743612
08 Apr 2023 08:50:36.500    08 Apr 2023 09:20:39.399      1802.8991927    Earth           Umbra       274           1802.8991927
08 Apr 2023 10:27:32.925    08 Apr 2023 10:57:35.663      1802.7380052    Earth           Umbra       275           1802.7380052
08 Apr 2023 12:04:29.280    08 Apr 2023 12:34:31.890      1802.6103879    Earth           Umbra       276           1802.6103879
08 Apr 2023 13:41:25.534    08 Apr 2023 14:11:28.032      1802.4982896    Earth           Umbra       277           1802.4982896
08 Apr 2023 15:18:21.762    08 Apr 2023 15:48:24.132      1802.3703863    Earth           Umbra       278           1802.3703863
08 Apr 2023 16:55:18.026    08 Apr 2023 17:25:20.237      1802.2111533    Earth           Umbra       279           1802.2111533
08 Apr 2023 18:32:14.329    08 Apr 2023 19:02:16.364      1802.0342117    Earth           Umbra       280           1802.0342117
08 Apr 2023 20:09:10.669    08 Apr 2023 20:39:12.544      1801.8752585    Earth           Umbra       281           1801.8752585
08 Apr 2023 21:46:07.044    08 Apr 2023 22:16:08.796      1801.7525499    Earth           Umbra       282           1801.7525499
08 Apr 2023 23:23:03.427    08 Apr 2023 23:53:05.064      1801.6366156    Earth           Umbra       283           1801.6366156
09 Apr 2023 00:59:59.784    09 Apr 2023 01:30:01.272      1801.4888431    Earth           Umbra       284           1801.4888431
09 Apr 2023 02:36:56.093    09 Apr 2023 03:06:57.412      1801.3188377    Earth           Umbra       285           1801.3188377
09 Apr 2023 04:13:52.349    09 Apr 2023 04:43:53.512      1801.1629151    Earth           Umbra       286           1801.1629151
09 Apr 2023 05:50:48.580    09 Apr 2023 06:20:49.601      1801.0209025    Earth           Umbra       287           1801.0209025
09 Apr 2023 07:27:44.865    09 Apr 2023 07:57:45.728      1800.8636827    Earth           Umbra       288           1800.8636827
09 Apr 2023 09:04:41.253    09 Apr 2023 09:34:41.946      1800.6920667    Earth           Umbra       289           1800.6920667
09 Apr 2023 10:41:37.675    09 Apr 2023 11:11:38.214      1800.5392694    Earth           Umbra       290           1800.5392694
09 Apr 2023 12:18:34.013    09 Apr 2023 12:48:34.433      1800.4196390    Earth           Umbra       291           1800.4196390
09 Apr 2023 13:55:30.257    09 Apr 2023 14:25:30.568      1800.3108898    Earth           Umbra       292           1800.3108898
09 Apr 2023 15:32:26.487    09 Apr 2023 16:02:26.669      1800.1824355    Earth           Umbra       293           1800.1824355
09 Apr 2023 17:09:22.756    09 Apr 2023 17:39:22.779      1800.0226700    Earth           Umbra       294           1800.0226700
09 Apr 2023 18:46:19.064    09 Apr 2023 19:16:18.914      1799.8498822    Earth           Umbra       295           1799.8498822
09 Apr 2023 20:23:15.408    09 Apr 2023 20:53:15.108      1799.7002728    Earth           Umbra       296           1799.7002728
09 Apr 2023 22:00:11.785    09 Apr 2023 22:30:11.371      1799.5853940    Earth           Umbra       297           1799.5853940
09 Apr 2023 23:37:08.166    10 Apr 2023 00:07:07.636      1799.4701534    Earth           Umbra       298           1799.4701534
10 Apr 2023 01:14:04.516    10 Apr 2023 01:44:03.837      1799.3206882    Earth           Umbra       299           1799.3206882
10 Apr 2023 02:51:00.817    10 Apr 2023 03:20:59.972      1799.1544286    Earth           Umbra       300           1799.1544286
10 Apr 2023 04:27:57.066    10 Apr 2023 04:57:56.071      1799.0057665    Earth           Umbra       301           1799.0057665
10 Apr 2023 06:04:53.297    10 Apr 2023 06:34:52.165      1798.8673916    Earth           Umbra       302           1798.8673916
10 Apr 2023 07:41:49.596    10 Apr 2023 08:11:48.307      1798.7109695    Earth           Umbra       303           1798.7109695
10 Apr 2023 09:18:45.996    10 Apr 2023 09:48:44.540      1798.5438933    Earth           Umbra       304           1798.5438933
10 Apr 2023 10:55:42.411    10 Apr 2023 11:25:40.811      1798.4000189    Earth           Umbra       305           1798.4000189
10 Apr 2023 12:32:38.733    10 Apr 2023 13:02:37.021      1798.2880244    Earth           Umbra       306           1798.2880244
10 Apr 2023 14:09:34.968    10 Apr 2023 14:39:33.150      1798.1820610    Earth           Umbra       307           1798.1820610
10 Apr 2023 15:46:31.201    10 Apr 2023 16:16:29.254      1798.0529346    Earth           Umbra       308           1798.0529346
10 Apr 2023 17:23:27.476    10 Apr 2023 17:53:25.369      1797.8932703    Earth           Umbra       309           1797.8932703
10 Apr 2023 19:00:23.788    10 Apr 2023 19:30:21.513      1797.7257820    Earth           Umbra       310           1797.7257820
10 Apr 2023 20:37:20.136    10 Apr 2023 21:07:17.722      1797.5860266    Earth           Umbra       311           1797.5860266
10 Apr 2023 22:14:16.516    10 Apr 2023 22:44:13.994      1797.4782253    Earth           Umbra       312           1797.4782253
10 Apr 2023 23:51:12.893    11 Apr 2023 00:21:10.256      1797.3629231    Earth           Umbra       313           1797.3629231
11 Apr 2023 01:28:09.237    11 Apr 2023 01:58:06.449      1797.2123890    Earth           Umbra       314           1797.2123890
11 Apr 2023 03:05:05.529    11 Apr 2023 03:35:02.580      1797.0510076    Earth           Umbra       315           1797.0510076
11 Apr 2023 04:42:01.771    11 Apr 2023 05:11:58.680      1796.9096635    Earth           Umbra       316           1796.9096635
11 Apr 2023 06:18:58.006    11 Apr 2023 06:48:54.780      1796.7743957    Earth           Umbra       317           1796.7743957
11 Apr 2023 07:55:54.319    11 Apr 2023 08:25:50.938      1796.6191068    Earth           Umbra       318           1796.6191068
11 Apr 2023 09:32:50.728    11 Apr 2023 10:02:47.186      1796.4575616    Earth           Umbra       319           1796.4575616
11 Apr 2023 11:09:47.134    11 Apr 2023 11:39:43.457      1796.3229953    Earth           Umbra       320           1796.3229953
11 Apr 2023 12:46:43.439    11 Apr 2023 13:16:39.658      1796.2181924    Earth           Umbra       321           1796.2181924
11 Apr 2023 14:23:39.669    11 Apr 2023 14:53:35.783      1796.1144773    Earth           Umbra       322           1796.1144773
11 Apr 2023 16:00:35.906    11 Apr 2023 16:30:31.891      1795.9846491    Earth           Umbra       323           1795.9846491
11 Apr 2023 17:37:32.186    11 Apr 2023 18:07:28.011      1795.8258307    Earth           Umbra       324           1795.8258307
11 Apr 2023 19:14:28.502    11 Apr 2023 19:44:24.166      1795.6647664    Earth           Umbra       325           1795.6647664
11 Apr 2023 20:51:24.855    11 Apr 2023 21:21:20.390      1795.5351764    Earth           Umbra       326           1795.5351764
11 Apr 2023 22:28:21.236    11 Apr 2023 22:58:16.669      1795.4335626    Earth           Umbra       327           1795.4335626
12 Apr 2023 00:05:17.610    12 Apr 2023 00:35:12.927      1795.3175953    Earth           Umbra       328           1795.3175953
12 Apr 2023 01:42:13.946    12 Apr 2023 02:12:09.113      1795.1668018    Earth           Umbra       329           1795.1668018
12 Apr 2023 03:19:10.230    12 Apr 2023 03:49:05.242      1795.0113363    Earth           Umbra       330           1795.0113363
12 Apr 2023 04:56:06.466    12 Apr 2023 05:26:01.343      1794.8771868    Earth           Umbra       331           1794.8771868
12 Apr 2023 06:33:02.706    12 Apr 2023 07:02:57.451      1794.7445343    Earth           Umbra       332           1794.7445343
12 Apr 2023 08:09:59.034    12 Apr 2023 08:39:53.625      1794.5908567    Earth           Umbra       333           1794.5908567
12 Apr 2023 09:46:55.451    12 Apr 2023 10:16:49.887      1794.4358107    Earth           Umbra       334           1794.4358107
12 Apr 2023 11:23:51.846    12 Apr 2023 11:53:46.156      1794.3107831    Earth           Umbra       335           1794.3107831
12 Apr 2023 13:00:48.135    12 Apr 2023 13:30:42.348      1794.2126495    Earth           Umbra       336           1794.2126495
12 Apr 2023 14:37:44.360    12 Apr 2023 15:07:38.471      1794.1106820    Earth           Umbra       337           1794.1106820
12 Apr 2023 16:14:40.602    12 Apr 2023 16:44:34.583      1793.9802239    Earth           Umbra       338           1793.9802239
12 Apr 2023 17:51:36.887    12 Apr 2023 18:21:30.710      1793.8231006    Earth           Umbra       339           1793.8231006
12 Apr 2023 19:28:33.208    12 Apr 2023 19:58:26.877      1793.6695301    Earth           Umbra       340           1793.6695301
12 Apr 2023 21:05:29.565    12 Apr 2023 21:35:23.116      1793.5501939    Earth           Umbra       341           1793.5501939
12 Apr 2023 22:42:25.947    12 Apr 2023 23:12:19.401      1793.4537834    Earth           Umbra       342           1793.4537834
13 Apr 2023 00:19:22.317    13 Apr 2023 00:49:15.653      1793.3367298    Earth           Umbra       343           1793.3367298
13 Apr 2023 01:56:18.646    13 Apr 2023 02:26:11.832      1793.1866357    Earth           Umbra       344           1793.1866357
13 Apr 2023 03:33:14.922    13 Apr 2023 04:03:07.960      1793.0379893    Earth           Umbra       345           1793.0379893
13 Apr 2023 05:10:11.152    13 Apr 2023 05:40:04.063      1792.9107442    Earth           Umbra       346           1792.9107442
13 Apr 2023 06:47:07.400    13 Apr 2023 07:17:00.180      1792.7802867    Earth           Umbra       347           1792.7802867
13 Apr 2023 08:24:03.744    13 Apr 2023 08:53:56.372      1792.6288372    Earth           Umbra       348           1792.6288372
13 Apr 2023 10:01:00.165    13 Apr 2023 10:30:52.646      1792.4811980    Earth           Umbra       349           1792.4811980
13 Apr 2023 11:37:56.547    13 Apr 2023 12:07:48.913      1792.3657845    Earth           Umbra       350           1792.3657845
13 Apr 2023 13:14:52.822    13 Apr 2023 13:44:45.096      1792.2737348    Earth           Umbra       351           1792.2737348
13 Apr 2023 14:51:49.045    13 Apr 2023 15:21:41.218      1792.1730590    Earth           Umbra       352           1792.1730590
13 Apr 2023 16:28:45.292    13 Apr 2023 16:58:37.334      1792.0421551    Earth           Umbra       353           1792.0421551
13 Apr 2023 18:05:41.582    13 Apr 2023 18:35:33.469      1791.8876589    Earth           Umbra       354           1791.8876589
13 Apr 2023 19:42:37.907    13 Apr 2023 20:12:29.649      1791.7425654    Earth           Umbra       355           1791.7425654
13 Apr 2023 21:19:34.269    13 Apr 2023 21:49:25.902      1791.6333412    Earth           Umbra       356           1791.6333412
13 Apr 2023 22:56:30.651    13 Apr 2023 23:26:22.192      1791.5411023    Earth           Umbra       357           1791.5411023
14 Apr 2023 00:33:27.016    14 Apr 2023 01:03:18.438      1791.4227456    Earth           Umbra       358           1791.4227456
14 Apr 2023 02:10:23.337    14 Apr 2023 02:40:14.612      1791.2744195    Earth           Umbra       359           1791.2744195
14 Apr 2023 03:47:19.605    14 Apr 2023 04:17:10.738      1791.1333320    Earth           Umbra       360           1791.1333320
14 Apr 2023 05:24:15.832    14 Apr 2023 05:54:06.844      1791.0125521    Earth           Umbra       361           1791.0125521
14 Apr 2023 07:01:12.089    14 Apr 2023 07:31:02.973      1790.8839767    Earth           Umbra       362           1790.8839767
14 Apr 2023 08:38:08.448    14 Apr 2023 09:07:59.184      1790.7354825    Earth           Umbra       363           1790.7354825
14 Apr 2023 10:15:04.872    14 Apr 2023 10:44:55.468      1790.5960722    Earth           Umbra       364           1790.5960722
14 Apr 2023 11:52:01.239    14 Apr 2023 12:21:51.729      1790.4901940    Earth           Umbra       365           1790.4901940
14 Apr 2023 13:28:57.501    14 Apr 2023 13:58:47.905      1790.4035997    Earth           Umbra       366           1790.4035997
14 Apr 2023 15:05:53.723    14 Apr 2023 15:35:44.027      1790.3038234    Earth           Umbra       367           1790.3038234
14 Apr 2023 16:42:49.977    14 Apr 2023 17:12:40.149      1790.1727627    Earth           Umbra       368           1790.1727627
14 Apr 2023 18:19:46.271    14 Apr 2023 18:49:36.293      1790.0218897    Earth           Umbra       369           1790.0218897
14 Apr 2023 19:56:42.601    14 Apr 2023 20:26:32.487      1789.8861328    Earth           Umbra       370           1789.8861328
14 Apr 2023 21:33:38.967    14 Apr 2023 22:03:28.754      1789.7866648    Earth           Umbra       371           1789.7866648
14 Apr 2023 23:10:35.349    14 Apr 2023 23:40:25.046      1789.6975525    Earth           Umbra       372           1789.6975525
15 Apr 2023 00:47:31.708    15 Apr 2023 01:17:21.286      1789.5778919    Earth           Umbra       373           1789.5778919
15 Apr 2023 02:24:28.023    15 Apr 2023 02:54:17.455      1789.4324721    Earth           Umbra       374           1789.4324721
15 Apr 2023 04:01:24.282    15 Apr 2023 04:31:13.581      1789.2994871    Earth           Umbra       375           1789.2994871
15 Apr 2023 05:38:20.507    15 Apr 2023 06:08:09.692      1789.1846262    Earth           Umbra       376           1789.1846262
15 Apr 2023 07:15:16.776    15 Apr 2023 07:45:05.834      1789.0577400    Earth           Umbra       377           1789.0577400
15 Apr 2023 08:52:13.150    15 Apr 2023 09:22:02.063      1788.9130193    Earth           Umbra       378           1788.9130193
15 Apr 2023 10:29:09.573    15 Apr 2023 10:58:58.355      1788.7825429    Earth           Umbra       379           1788.7825429
15 Apr 2023 12:06:05.925    15 Apr 2023 12:35:54.611      1788.6859802    Earth           Umbra       380           1788.6859802
15 Apr 2023 13:43:02.175    15 Apr 2023 14:12:50.779      1788.6041853    Earth           Umbra       381           1788.6041853
15 Apr 2023 15:19:58.399    15 Apr 2023 15:49:46.903      1788.5049805    Earth           Umbra       382           1788.5049805
15 Apr 2023 16:56:54.658    15 Apr 2023 17:26:43.032      1788.3741646    Earth           Umbra       383           1788.3741646
15 Apr 2023 18:33:50.957    15 Apr 2023 19:03:39.185      1788.2279593    Earth           Umbra       384           1788.2279593
15 Apr 2023 20:10:47.292    15 Apr 2023 20:40:35.394      1788.1022421    Earth           Umbra       385           1788.1022421
15 Apr 2023 21:47:43.662    15 Apr 2023 22:17:31.674      1788.0119586    Earth           Umbra       386           1788.0119586
15 Apr 2023 23:24:40.043    15 Apr 2023 23:54:27.968      1787.9249689    Earth           Umbra       387           1787.9249689
16 Apr 2023 01:01:36.397    16 Apr 2023 01:31:24.201      1787.8042258    Earth           Umbra       388           1787.8042258
16 Apr 2023 02:38:32.703    16 Apr 2023 03:08:20.366      1787.6628657    Earth           Umbra       389           1787.6628657
16 Apr 2023 04:15:28.955    16 Apr 2023 04:45:16.493      1787.5383200    Earth           Umbra       390           1787.5383200
16 Apr 2023 05:52:25.180    16 Apr 2023 06:22:12.609      1787.4287595    Earth           Umbra       391           1787.4287595
16 Apr 2023 07:29:21.462    16 Apr 2023 07:59:08.766      1787.3035084    Earth           Umbra       392           1787.3035084
16 Apr 2023 09:06:17.849    16 Apr 2023 09:36:05.013      1787.1634367    Earth           Umbra       393           1787.1634367
16 Apr 2023 10:43:14.269    16 Apr 2023 11:13:01.312      1787.0424698    Earth           Umbra       394           1787.0424698
16 Apr 2023 12:20:10.605    16 Apr 2023 12:49:57.560      1786.9548635    Earth           Umbra       395           1786.9548635
16 Apr 2023 13:57:06.846    16 Apr 2023 14:26:53.723      1786.8772060    Earth           Umbra       396           1786.8772060
16 Apr 2023 15:34:03.072    16 Apr 2023 16:03:49.851      1786.7783249    Earth           Umbra       397           1786.7783249
16 Apr 2023 17:10:59.338    16 Apr 2023 17:40:45.986      1786.6482665    Earth           Umbra       398           1786.6482665
16 Apr 2023 18:47:55.641    16 Apr 2023 19:17:42.149      1786.5077844    Earth           Umbra       399           1786.5077844
16 Apr 2023 20:24:51.981    16 Apr 2023 20:54:38.374      1786.3926277    Earth           Umbra       400           1786.3926277
16 Apr 2023 22:01:48.356    16 Apr 2023 22:31:34.666      1786.3107684    Earth           Umbra       401           1786.3107684
16 Apr 2023 23:38:44.734    17 Apr 2023 00:08:30.959      1786.2249831    Earth           Umbra       402           1786.2249831
17 Apr 2023 01:15:41.083    17 Apr 2023 01:45:27.186      1786.1035885    Earth           Umbra       403           1786.1035885
17 Apr 2023 02:52:37.381    17 Apr 2023 03:22:23.349      1785.9674144    Earth           Umbra       404           1785.9674144
17 Apr 2023 04:29:33.626    17 Apr 2023 04:59:19.477      1785.8514339    Earth           Umbra       405           1785.8514339
17 Apr 2023 06:06:29.853    17 Apr 2023 06:36:15.600      1785.7465144    Earth           Umbra       406           1785.7465144
17 Apr 2023 07:43:26.150    17 Apr 2023 08:13:11.773      1785.6229952    Earth           Umbra       407           1785.6229952
17 Apr 2023 09:20:22.549    17 Apr 2023 09:50:08.038      1785.4884754    Earth           Umbra       408           1785.4884754
17 Apr 2023 10:57:18.963    17 Apr 2023 11:27:04.341      1785.3774379    Earth           Umbra       409           1785.3774379
17 Apr 2023 12:34:15.284    17 Apr 2023 13:04:00.582      1785.2983172    Earth           Umbra       410           1785.2983172
17 Apr 2023 14:11:11.517    17 Apr 2023 14:40:56.741      1785.2241405    Earth           Umbra       411           1785.2241405
17 Apr 2023 15:48:07.747    17 Apr 2023 16:17:52.872      1785.1254248    Earth           Umbra       412           1785.1254248
17 Apr 2023 17:25:04.018    17 Apr 2023 17:54:49.015      1784.9967378    Earth           Umbra       413           1784.9967378
17 Apr 2023 19:02:00.327    17 Apr 2023 19:31:45.190      1784.8630183    Earth           Umbra       414           1784.8630183
17 Apr 2023 20:38:56.673    17 Apr 2023 21:08:41.431      1784.7587403    Earth           Umbra       415           1784.7587403
17 Apr 2023 22:15:53.050    17 Apr 2023 22:45:37.734      1784.6843898    Earth           Umbra       416           1784.6843898
17 Apr 2023 23:52:49.426    18 Apr 2023 00:22:34.025      1784.5990160    Earth           Umbra       417           1784.5990160
18 Apr 2023 01:29:45.769    18 Apr 2023 01:59:30.246      1784.4775949    Earth           Umbra       418           1784.4775949
18 Apr 2023 03:06:42.059    18 Apr 2023 03:36:26.407      1784.3476604    Earth           Umbra       419           1784.3476604
18 Apr 2023 04:43:38.298    18 Apr 2023 05:13:22.538      1784.2401613    Earth           Umbra       420           1784.2401613
18 Apr 2023 06:20:34.530    18 Apr 2023 06:50:18.669      1784.1392298    Earth           Umbra       421           1784.1392298
18 Apr 2023 07:57:30.842    18 Apr 2023 08:27:14.860      1784.0176849    Earth           Umbra       422           1784.0176849
18 Apr 2023 09:34:27.252    18 Apr 2023 10:04:11.141      1783.8896147    Earth           Umbra       423           1783.8896147
18 Apr 2023 11:11:23.658    18 Apr 2023 11:41:07.446      1783.7887735    Earth           Umbra       424           1783.7887735
18 Apr 2023 12:48:19.962    18 Apr 2023 13:18:03.680      1783.7175655    Earth           Umbra       425           1783.7175655
18 Apr 2023 14:25:16.190    18 Apr 2023 14:54:59.836      1783.6462403    Earth           Umbra       426           1783.6462403
18 Apr 2023 16:02:12.425    18 Apr 2023 16:31:55.973      1783.5476245    Earth           Umbra       427           1783.5476245
18 Apr 2023 17:39:08.702    18 Apr 2023 18:08:52.123      1783.4210244    Earth           Umbra       428           1783.4210244
18 Apr 2023 19:16:05.016    18 Apr 2023 19:45:48.311      1783.2950660    Earth           Umbra       429           1783.2950660
18 Apr 2023 20:53:01.368    18 Apr 2023 21:22:44.569      1783.2017645    Earth           Umbra       430           1783.2017645
18 Apr 2023 22:29:57.747    18 Apr 2023 22:59:40.881      1783.1338830    Earth           Umbra       431           1783.1338830
19 Apr 2023 00:06:54.121    19 Apr 2023 00:36:37.169      1783.0482917    Earth           Umbra       432           1783.0482917
19 Apr 2023 01:43:50.457    19 Apr 2023 02:13:33.385      1782.9276395    Earth           Umbra       433           1782.9276395
19 Apr 2023 03:20:46.740    19 Apr 2023 03:50:29.545      1782.8048809    Earth           Umbra       434           1782.8048809
19 Apr 2023 04:57:42.973    19 Apr 2023 05:27:25.679      1782.7055884    Earth           Umbra       435           1782.7055884
19 Apr 2023 06:34:39.212    19 Apr 2023 07:04:21.820      1782.6080306    Earth           Umbra       436           1782.6080306
19 Apr 2023 08:11:35.540    19 Apr 2023 08:41:18.029      1782.4888531    Earth           Umbra       437           1782.4888531
19 Apr 2023 09:48:31.958    19 Apr 2023 10:18:14.326      1782.3680952    Earth           Umbra       438           1782.3680952
19 Apr 2023 11:25:28.354    19 Apr 2023 11:55:10.632      1782.2775525    Earth           Umbra       439           1782.2775525
19 Apr 2023 13:02:24.644    19 Apr 2023 13:32:06.857      1782.2136047    Earth           Umbra       440           1782.2136047
19 Apr 2023 14:39:20.868    19 Apr 2023 15:09:03.013      1782.1445427    Earth           Umbra       441           1782.1445427
19 Apr 2023 16:16:17.109    19 Apr 2023 16:45:59.155      1782.0460667    Earth           Umbra       442           1782.0460667
19 Apr 2023 17:53:13.392    19 Apr 2023 18:22:55.315      1781.9223545    Earth           Umbra       443           1781.9223545
19 Apr 2023 19:30:09.712    19 Apr 2023 19:59:51.517      1781.8050756    Earth           Umbra       444           1781.8050756
19 Apr 2023 21:07:06.069    19 Apr 2023 21:36:47.791      1781.7226263    Earth           Umbra       445           1781.7226263
19 Apr 2023 22:44:02.451    19 Apr 2023 23:13:44.111      1781.6600996    Earth           Umbra       446           1781.6600996
20 Apr 2023 00:20:58.821    20 Apr 2023 00:50:40.395      1781.5738513    Earth           Umbra       447           1781.5738513
20 Apr 2023 01:57:55.151    20 Apr 2023 02:27:36.606      1781.4549043    Earth           Umbra       448           1781.4549043
20 Apr 2023 03:34:51.426    20 Apr 2023 04:04:32.766      1781.3401094    Earth           Umbra       449           1781.3401094
20 Apr 2023 05:11:47.655    20 Apr 2023 05:41:28.904      1781.2485753    Earth           Umbra       450           1781.2485753
20 Apr 2023 06:48:43.903    20 Apr 2023 07:18:25.057      1781.1538614    Earth           Umbra       451           1781.1538614
20 Apr 2023 08:25:40.248    20 Apr 2023 08:55:21.286      1781.0375691    Earth           Umbra       452           1781.0375691
20 Apr 2023 10:02:36.672    20 Apr 2023 10:32:17.597      1780.9249236    Earth           Umbra       453           1780.9249236
20 Apr 2023 11:39:33.056    20 Apr 2023 12:09:13.900      1780.8446255    Earth           Umbra       454           1780.8446255
20 Apr 2023 13:16:29.332    20 Apr 2023 13:46:10.119      1780.7872319    Earth           Umbra       455           1780.7872319
20 Apr 2023 14:53:25.555    20 Apr 2023 15:23:06.275      1780.7198980    Earth           Umbra       456           1780.7198980
20 Apr 2023 16:30:21.802    20 Apr 2023 17:00:02.424      1780.6217150    Earth           Umbra       457           1780.6217150
20 Apr 2023 18:07:18.091    20 Apr 2023 18:36:58.593      1780.5017625    Earth           Umbra       458           1780.5017625
20 Apr 2023 19:44:14.416    20 Apr 2023 20:13:54.810      1780.3939773    Earth           Umbra       459           1780.3939773
20 Apr 2023 21:21:10.779    20 Apr 2023 21:50:51.101      1780.3220310    Earth           Umbra       460           1780.3220310
20 Apr 2023 22:58:07.162    20 Apr 2023 23:27:47.426      1780.2637165    Earth           Umbra       461           1780.2637165
21 Apr 2023 00:35:03.529    21 Apr 2023 01:04:43.705      1780.1765917    Earth           Umbra       462           1780.1765917
21 Apr 2023 02:11:59.852    21 Apr 2023 02:41:39.912      1780.0603823    Earth           Umbra       463           1780.0603823
