Runs/Test_EpSep00-SMA8000-ECC01-INC60-RAAN0-AOP0-TA0_NadE100-V001/Eclipse-Test_EpSep00-SMA8000-ECC01-INC60-RAAN0-AOP0-TA0_NadE100-V001.txt

Spacecraft: Sat

Start Time (UTC)            Stop Time (UTC)               Duration (s)    Occ Body        Type        Event Number  Total Duration (s)
20 Sep 2011 00:00:00.000    20 Sep 2011 00:16:14.223      974.22307933    Earth           Umbra       1             974.22307933
20 Sep 2011 01:40:33.387    20 Sep 2011 02:14:49.897      2056.5103278    Earth           Umbra       2             2056.5103278
20 Sep 2011 03:39:08.855    20 Sep 2011 04:13:25.567      2056.7111581    Earth           Umbra       3             2056.7111581
20 Sep 2011 05:37:44.431    20 Sep 2011 06:12:01.323      2056.8915993    Earth           Umbra       4             2056.8915993
20 Sep 2011 07:36:20.073    20 Sep 2011 08:10:37.118      2057.0446905    Earth           Umbra       5             2057.0446905
20 Sep 2011 09:34:55.649    20 Sep 2011 10:09:12.816      2057.1668251    Earth           Umbra       6             2057.1668251
20 Sep 2011 11:33:31.159    20 Sep 2011 12:07:48.418      2057.2583954    Earth           Umbra       7             2057.2583954
20 Sep 2011 13:32:06.700    20 Sep 2011 14:06:24.023      2057.3229504    Earth           Umbra       8             2057.3229504
20 Sep 2011 15:30:42.290    20 Sep 2011 16:04:59.654      2057.3643735    Earth           Umbra       9             2057.3643735
20 Sep 2011 17:29:17.902    20 Sep 2011 18:03:35.284      2057.3820010    Earth           Umbra       10            2057.3820010
20 Sep 2011 19:27:53.549    20 Sep 2011 20:02:10.921      2057.3720471    Earth           Umbra       11            2057.3720471
20 Sep 2011 21:26:29.223    20 Sep 2011 22:00:46.561      2057.3381915    Earth           Umbra       12            2057.3381915
20 Sep 2011 23:25:04.872    20 Sep 2011 23:59:22.164      2057.2921114    Earth           Umbra       13            2057.2921114
21 Sep 2011 01:23:40.462    21 Sep 2011 01:57:57.701      2057.2398407    Earth           Umbra       14            2057.2398407
21 Sep 2011 03:22:16.056    21 Sep 2011 03:56:33.232      2057.1759926    Earth           Umbra       15            2057.1759926
21 Sep 2011 05:20:51.759    21 Sep 2011 05:55:08.850      2057.0909809    Earth           Umbra       16            2057.0909809
21 Sep 2011 07:19:27.532    21 Sep 2011 07:53:44.511      2056.9782640    Earth           Umbra       17            2056.9782640
21 Sep 2011 09:18:03.242    21 Sep 2011 09:52:20.078      2056.8357871    Earth           Umbra       18            2056.8357871
21 Sep 2011 11:16:38.883    21 Sep 2011 11:50:55.547      2056.6638115    Earth           Umbra       19            2056.6638115
21 Sep 2011 13:15:14.555    21 Sep 2011 13:49:31.019      2056.4645975    Earth           Umbra       20            2056.4645975
21 Sep 2011 15:13:50.277    21 Sep 2011 15:48:06.518      2056.2416440    Earth           Umbra       21            2056.2416440
21 Sep 2011 17:12:26.024    21 Sep 2011 17:46:42.018      2055.9940062    Earth           Umbra       22            2055.9940062
21 Sep 2011 19:11:01.805    21 Sep 2011 19:45:17.523      2055.7180550    Earth           Umbra       23            2055.7180550
21 Sep 2011 21:09:37.616    21 Sep 2011 21:43:53.034      2055.4185536    Earth           Umbra       24            2055.4185536
21 Sep 2011 23:08:13.403    21 Sep 2011 23:42:28.510      2055.1072330    Earth           Umbra       25            2055.1072330
22 Sep 2011 01:06:49.134    22 Sep 2011 01:41:03.923      2054.7894419    Earth           Umbra       26            2054.7894419
22 Sep 2011 03:05:24.869    22 Sep 2011 03:39:39.328      2054.4596361    Earth           Umbra       27            2054.4596361
22 Sep 2011 05:04:00.711    22 Sep 2011 05:38:14.819      2054.1077681    Earth           Umbra       28            2054.1077681
22 Sep 2011 07:02:36.629    22 Sep 2011 07:36:50.357      2053.7275382    Earth           Umbra       29            2053.7275382
22 Sep 2011 09:01:12.486    22 Sep 2011 09:35:25.805      2053.3184700    Earth           Umbra       30            2053.3184700
22 Sep 2011 10:59:48.273    22 Sep 2011 11:34:01.154      2052.8809718    Earth           Umbra       31            2052.8809718
22 Sep 2011 12:58:24.088    22 Sep 2011 13:32:36.504      2052.4160348    Earth           Umbra       32            2052.4160348
22 Sep 2011 14:56:59.956    22 Sep 2011 15:31:11.883      2051.9266871    Earth           Umbra       33            2051.9266871
22 Sep 2011 16:55:35.851    22 Sep 2011 17:29:47.263      2051.4116659    Earth           Umbra       34            2051.4116659
22 Sep 2011 18:54:11.781    22 Sep 2011 19:28:22.649      2050.8673405    Earth           Umbra       35            2050.8673405
22 Sep 2011 20:52:47.742    22 Sep 2011 21:26:58.042      2050.2995070    Earth           Umbra       36            2050.2995070
22 Sep 2011 22:51:23.683    22 Sep 2011 23:25:33.403      2049.7200854    Earth           Umbra       37            2049.7200854
23 Sep 2011 00:49:59.568    23 Sep 2011 01:24:08.702      2049.1337302    Earth           Umbra       38            2049.1337302
23 Sep 2011 02:48:35.457    23 Sep 2011 03:22:43.992      2048.5347484    Earth           Umbra       39            2048.5347484
23 Sep 2011 04:47:11.454    23 Sep 2011 05:21:19.367      2047.9126825    Earth           Umbra       40            2047.9126825
23 Sep 2011 06:45:47.532    23 Sep 2011 07:19:54.793      2047.2613046    Earth           Umbra       41            2047.2613046
23 Sep 2011 08:44:23.551    23 Sep 2011 09:18:30.133      2046.5817148    Earth           Umbra       42            2046.5817148
23 Sep 2011 10:42:59.497    23 Sep 2011 11:17:05.372      2045.8747434    Earth           Umbra       43            2045.8747434
23 Sep 2011 12:41:35.471    23 Sep 2011 13:15:40.611      2045.1401750    Earth           Umbra       44            2045.1401750
23 Sep 2011 14:40:11.500    23 Sep 2011 15:14:15.881      2044.3804656    Earth           Umbra       45            2044.3804656
23 Sep 2011 16:38:47.558    23 Sep 2011 17:12:51.152      2043.5939952    Earth           Umbra       46            2043.5939952
23 Sep 2011 18:37:23.653    23 Sep 2011 19:11:26.430      2042.7769696    Earth           Umbra       47            2042.7769696
23 Sep 2011 20:35:59.779    23 Sep 2011 21:10:01.715      2041.9361612    Earth           Umbra       48            2041.9361612
23 Sep 2011 22:34:35.888    23 Sep 2011 23:08:36.972      2041.0838175    Earth           Umbra       49            2041.0838175
24 Sep 2011 00:33:11.944    24 Sep 2011 01:07:12.168      2040.2238883    Earth           Umbra       50            2040.2238883
24 Sep 2011 02:31:48.003    24 Sep 2011 03:05:47.353      2039.3505382    Earth           Umbra       51            2039.3505382
24 Sep 2011 04:30:24.169    24 Sep 2011 05:04:22.622      2038.4529599    Earth           Umbra       52            2038.4529599
24 Sep 2011 06:29:00.422    24 Sep 2011 07:02:57.947      2037.5248353    Earth           Umbra       53            2037.5248353
24 Sep 2011 08:27:36.620    24 Sep 2011 09:01:33.189      2036.5687957    Earth           Umbra       54            2036.5687957
24 Sep 2011 10:26:12.742    24 Sep 2011 11:00:08.329      2035.5863899    Earth           Umbra       55            2035.5863899
24 Sep 2011 12:24:48.890    24 Sep 2011 12:58:43.467      2034.5762861    Earth           Umbra       56            2034.5762861
24 Sep 2011 14:23:25.097    24 Sep 2011 14:57:18.637      2033.5402644    Earth           Umbra       57            2033.5402644
24 Sep 2011 16:22:01.334    24 Sep 2011 16:55:53.810      2032.4762966    Earth           Umbra       58            2032.4762966
24 Sep 2011 18:20:37.609    24 Sep 2011 18:54:28.989      2031.3802614    Earth           Umbra       59            2031.3802614
24 Sep 2011 20:19:13.917    24 Sep 2011 20:53:04.177      2030.2598422    Earth           Umbra       60            2030.2598422
24 Sep 2011 22:17:50.211    24 Sep 2011 22:51:39.339      2029.1277465    Earth           Umbra       61            2029.1277465
25 Sep 2011 00:16:26.454    25 Sep 2011 00:50:14.441      2027.9872295    Earth           Umbra       62            2027.9872295
25 Sep 2011 02:15:02.700    25 Sep 2011 02:48:49.532      2026.8323009    Earth           Umbra       63            2026.8323009
25 Sep 2011 04:13:39.054    25 Sep 2011 04:47:24.705      2025.6518852    Earth           Umbra       64            2025.6518852
25 Sep 2011 06:12:15.498    25 Sep 2011 06:45:59.937      2024.4394082    Earth           Umbra       65            2024.4394082
25 Sep 2011 08:10:51.892    25 Sep 2011 08:44:35.091      2023.1989577    Earth           Umbra       66            2023.1989577
25 Sep 2011 10:09:28.208    25 Sep 2011 10:43:10.141      2021.9330969    Earth           Umbra       67            2021.9330969
25 Sep 2011 12:08:04.548    25 Sep 2011 12:41:45.188      2020.6395161    Earth           Umbra       68            2020.6395161
25 Sep 2011 14:06:40.949    25 Sep 2011 14:40:20.268      2019.3192117    Earth           Umbra       69            2019.3192117
25 Sep 2011 16:05:17.383    25 Sep 2011 16:38:55.353      2017.9696742    Earth           Umbra       70            2017.9696742
25 Sep 2011 18:03:53.856    25 Sep 2011 18:37:30.442      2016.5863031    Earth           Umbra       71            2016.5863031
25 Sep 2011 20:02:30.364    25 Sep 2011 20:36:05.542      2015.1775984    Earth           Umbra       72            2015.1775984
25 Sep 2011 22:01:06.861    25 Sep 2011 22:34:40.618      2013.7568743    Earth           Umbra       73            2013.7568743
25 Sep 2011 23:59:43.310    26 Sep 2011 00:33:15.636      2012.3267057    Earth           Umbra       74            2012.3267057
26 Sep 2011 01:58:19.761    26 Sep 2011 02:31:50.642      2010.8809346    Earth           Umbra       75            2010.8809346
26 Sep 2011 03:56:56.320    26 Sep 2011 04:30:25.729      2009.4083025    Earth           Umbra       76            2009.4083025
26 Sep 2011 05:55:32.976    26 Sep 2011 06:29:00.878      2007.9018253    Earth           Umbra       77            2007.9018253
26 Sep 2011 07:54:09.585    26 Sep 2011 08:27:35.952      2006.3669274    Earth           Umbra       78            2006.3669274
26 Sep 2011 09:52:46.113    26 Sep 2011 10:26:10.921      2004.8074864    Earth           Umbra       79            2004.8074864
26 Sep 2011 11:51:22.665    26 Sep 2011 12:24:45.885      2003.2204049    Earth           Umbra       80            2003.2204049
26 Sep 2011 13:49:59.279    26 Sep 2011 14:23:20.885      2001.6057878    Earth           Umbra       81            2001.6057878
26 Sep 2011 15:48:35.929    26 Sep 2011 16:21:55.890      1999.9605537    Earth           Umbra       82            1999.9605537
26 Sep 2011 17:47:12.620    26 Sep 2011 18:20:30.899      1998.2794618    Earth           Umbra       83            1998.2794618
26 Sep 2011 19:45:49.348    26 Sep 2011 20:19:05.920      1996.5717325    Earth           Umbra       84            1996.5717325
26 Sep 2011 21:44:26.067    26 Sep 2011 22:17:40.919      1994.8514148    Earth           Umbra       85            1994.8514148
26 Sep 2011 23:43:02.741    27 Sep 2011 00:16:15.862      1993.1204398    Earth           Umbra       86            1993.1204398
27 Sep 2011 01:41:39.418    27 Sep 2011 02:14:50.790      1991.3724663    Earth           Umbra       87            1991.3724663
27 Sep 2011 03:40:16.203    27 Sep 2011 04:13:25.799      1989.5961571    Earth           Umbra       88            1989.5961571
27 Sep 2011 05:38:53.090    27 Sep 2011 06:12:00.874      1987.7839592    Earth           Umbra       89            1987.7839592
27 Sep 2011 07:37:29.935    27 Sep 2011 08:10:35.877      1985.9424641    Earth           Umbra       90            1985.9424641
27 Sep 2011 09:36:06.697    27 Sep 2011 10:09:10.774      1984.0771739    Earth           Umbra       91            1984.0771739
27 Sep 2011 11:34:43.480    27 Sep 2011 12:07:45.665      1982.1844570    Earth           Umbra       92            1982.1844570
27 Sep 2011 13:33:20.329    27 Sep 2011 14:06:20.592      1980.2634137    Earth           Umbra       93            1980.2634137
27 Sep 2011 15:31:57.217    27 Sep 2011 16:04:55.527      1978.3102758    Earth           Umbra       94            1978.3102758
27 Sep 2011 17:30:34.146    27 Sep 2011 18:03:30.465      1976.3190008    Earth           Umbra       95            1976.3190008
27 Sep 2011 19:29:11.114    27 Sep 2011 20:02:05.414      1974.2994109    Earth           Umbra       96            1974.2994109
27 Sep 2011 21:27:48.078    27 Sep 2011 22:00:40.344      1972.2664231    Earth           Umbra       97            1972.2664231
27 Sep 2011 23:26:24.999    27 Sep 2011 23:59:15.220      1970.2213706    Earth           Umbra       98            1970.2213706
28 Sep 2011 01:25:01.923    28 Sep 2011 01:57:50.081      1968.1577219    Earth           Umbra       99            1968.1577219
28 Sep 2011 03:23:38.957    28 Sep 2011 03:56:25.021      1966.0641741    Earth           Umbra       100           1966.0641741
28 Sep 2011 05:22:16.097    28 Sep 2011 05:55:00.029      1963.9324431    Earth           Umbra       101           1963.9324431
28 Sep 2011 07:20:53.200    28 Sep 2011 07:53:34.970      1961.7700787    Earth           Umbra       102           1961.7700787
28 Sep 2011 09:19:30.219    28 Sep 2011 09:52:09.804      1959.5845098    Earth           Umbra       103           1959.5845098
28 Sep 2011 11:18:07.257    28 Sep 2011 11:50:44.629      1957.3718882    Earth           Umbra       104           1957.3718882
28 Sep 2011 13:16:44.363    28 Sep 2011 13:49:19.493      1955.1302189    Earth           Umbra       105           1955.1302189
28 Sep 2011 15:15:21.510    28 Sep 2011 15:47:54.365      1952.8548902    Earth           Umbra       106           1952.8548902
28 Sep 2011 17:13:58.701    28 Sep 2011 17:46:29.240      1950.5388946    Earth           Umbra       107           1950.5388946
28 Sep 2011 19:12:35.934    28 Sep 2011 19:45:04.126      1948.1925189    Earth           Umbra       108           1948.1925189
28 Sep 2011 21:11:13.165    28 Sep 2011 21:43:38.996      1945.8316706    Earth           Umbra       109           1945.8316706
28 Sep 2011 23:09:50.357    28 Sep 2011 23:42:13.814      1943.4571550    Earth           Umbra       110           1943.4571550
29 Sep 2011 01:08:27.552    29 Sep 2011 01:40:48.614      1941.0622499    Earth           Umbra       111           1941.0622499
29 Sep 2011 03:07:04.858    29 Sep 2011 03:39:23.494      1938.6358178    Earth           Umbra       112           1938.6358178
29 Sep 2011 05:05:42.276    29 Sep 2011 05:37:58.444      1936.1686833    Earth           Umbra       113           1936.1686833
29 Sep 2011 07:04:19.662    29 Sep 2011 07:36:33.331      1933.6690712    Earth           Umbra       114           1933.6690712
29 Sep 2011 09:02:56.963    29 Sep 2011 09:35:08.109      1931.1466445    Earth           Umbra       115           1931.1466445
29 Sep 2011 11:01:34.279    29 Sep 2011 11:33:42.877      1928.5977427    Earth           Umbra       116           1928.5977427
29 Sep 2011 13:00:11.666    29 Sep 2011 13:32:17.686      1926.0191948    Earth           Umbra       117           1926.0191948
29 Sep 2011 14:58:49.099    29 Sep 2011 15:30:52.504      1923.4053564    Earth           Umbra       118           1923.4053564
29 Sep 2011 16:57:26.576    29 Sep 2011 17:29:27.324      1920.7480688    Earth           Umbra       119           1920.7480688
29 Sep 2011 18:56:04.098    29 Sep 2011 19:28:02.156      1918.0579465    Earth           Umbra       120           1918.0579465
29 Sep 2011 20:54:41.623    29 Sep 2011 21:26:36.974      1915.3519872    Earth           Umbra       121           1915.3519872
29 Sep 2011 22:53:19.111    29 Sep 2011 23:25:11.741      1912.6305588    Earth           Umbra       122           1912.6305588
30 Sep 2011 00:51:56.603    30 Sep 2011 01:23:46.490      1909.8867671    Earth           Umbra       123           1909.8867671
30 Sep 2011 02:50:34.207    30 Sep 2011 03:22:21.317      1907.1097976    Earth           Umbra       124           1907.1097976
30 Sep 2011 04:49:11.929    30 Sep 2011 05:20:56.219      1904.2894073    Earth           Umbra       125           1904.2894073
30 Sep 2011 06:47:49.625    30 Sep 2011 07:19:31.059      1901.4341485    Earth           Umbra       126           1901.4341485
30 Sep 2011 08:46:27.234    30 Sep 2011 09:18:05.790      1898.5562132    Earth           Umbra       127           1898.5562132
30 Sep 2011 10:45:04.857    30 Sep 2011 11:16:40.509      1895.6526337    Earth           Umbra       128           1895.6526337
30 Sep 2011 12:43:42.552    30 Sep 2011 13:15:15.271      1892.7190142    Earth           Umbra       129           1892.7190142
30 Sep 2011 14:42:20.295    30 Sep 2011 15:13:50.044      1889.7484284    Earth           Umbra       130           1889.7484284
30 Sep 2011 16:40:58.087    30 Sep 2011 17:12:24.818      1886.7313704    Earth           Umbra       131           1886.7313704
30 Sep 2011 18:39:35.925    30 Sep 2011 19:10:59.604      1883.6786259    Earth           Umbra       132           1883.6786259
30 Sep 2011 20:38:13.770    30 Sep 2011 21:09:34.378      1880.6083763    Earth           Umbra       133           1880.6083763
30 Sep 2011 22:36:51.583    30 Sep 2011 23:08:09.103      1877.5206551    Earth           Umbra       134           1877.5206551
01 Oct 2011 00:35:29.400    01 Oct 2011 01:06:43.809      1874.4084483    Earth           Umbra       135           1874.4084483
01 Oct 2011 02:34:07.330    01 Oct 2011 03:05:18.592      1871.2614410    Earth           Umbra       136           1871.2614410
01 Oct 2011 04:32:45.384    01 Oct 2011 05:03:53.452      1868.0681484    Earth           Umbra       137           1868.0681484
01 Oct 2011 06:31:23.419    01 Oct 2011 07:02:28.256      1864.8370043    Earth           Umbra       138           1864.8370043
01 Oct 2011 08:30:01.365    01 Oct 2011 09:01:02.948      1861.5830159    Earth           Umbra       139           1861.5830159
01 Oct 2011 10:28:39.322    01 Oct 2011 10:59:37.626      1858.3045305    Earth           Umbra       140           1858.3045305
01 Oct 2011 12:27:17.354    01 Oct 2011 12:58:12.350      1854.9959190    Earth           Umbra       141           1854.9959190
01 Oct 2011 14:25:55.438    01 Oct 2011 14:56:47.086      1851.6486633    Earth           Umbra       142           1851.6486633
01 Oct 2011 16:24:33.571    01 Oct 2011 16:55:21.823      1848.2516857    Earth           Umbra       143           1848.2516857
01 Oct 2011 18:23:11.756    01 Oct 2011 18:53:56.572      1844.8157841    Earth           Umbra       144           1844.8157841
01 Oct 2011 20:21:49.950    01 Oct 2011 20:52:31.311      1841.3603950    Earth           Umbra       145           1841.3603950
01 Oct 2011 22:20:28.117    01 Oct 2011 22:51:06.002      1837.8853368    Earth           Umbra       146           1837.8853368
02 Oct 2011 00:19:06.290    02 Oct 2011 00:49:40.674      1834.3835632    Earth           Umbra       147           1834.3835632
02 Oct 2011 02:17:44.576    02 Oct 2011 02:48:15.421      1830.8454864    Earth           Umbra       148           1830.8454864
02 Oct 2011 04:16:22.992    02 Oct 2011 04:46:50.250      1827.2581800    Earth           Umbra       149           1827.2581800
02 Oct 2011 06:15:01.395    02 Oct 2011 06:45:25.024      1823.6294109    Earth           Umbra       150           1823.6294109
02 Oct 2011 08:13:39.710    02 Oct 2011 08:43:59.687      1819.9772600    Earth           Umbra       151           1819.9772600
02 Oct 2011 10:12:18.032    02 Oct 2011 10:42:34.334      1816.3021554    Earth           Umbra       152           1816.3021554
02 Oct 2011 12:10:56.431    02 Oct 2011 12:41:09.028      1812.5972975    Earth           Umbra       153           1812.5972975
02 Oct 2011 14:09:34.885    02 Oct 2011 14:39:43.738      1808.8521770    Earth           Umbra       154           1808.8521770
02 Oct 2011 16:08:13.392    02 Oct 2011 16:38:18.446      1805.0538798    Earth           Umbra       155           1805.0538798
02 Oct 2011 18:06:51.953    02 Oct 2011 18:36:53.166      1801.2130632    Earth           Umbra       156           1801.2130632
02 Oct 2011 20:05:30.529    02 Oct 2011 20:35:27.880      1797.3504669    Earth           Umbra       157           1797.3504669
02 Oct 2011 22:04:09.081    02 Oct 2011 22:34:02.547      1793.4658254    Earth           Umbra       158           1793.4658254
03 Oct 2011 00:02:47.641    03 Oct 2011 00:32:37.193      1789.5522018    Earth           Umbra       159           1789.5522018
03 Oct 2011 02:01:26.315    03 Oct 2011 02:31:11.916      1785.6010131    Earth           Umbra       160           1785.6010131
03 Oct 2011 04:00:05.124    03 Oct 2011 04:29:46.722      1781.5976779    Earth           Umbra       161           1781.5976779
03 Oct 2011 05:58:43.929    03 Oct 2011 06:28:21.477      1777.5486110    Earth           Umbra       162           1777.5486110
03 Oct 2011 07:57:22.644    03 Oct 2011 08:26:56.119      1773.4751912    Earth           Umbra       163           1773.4751912
03 Oct 2011 09:56:01.364    03 Oct 2011 10:25:30.745      1769.3808634    Earth           Umbra       164           1769.3808634
03 Oct 2011 11:54:40.162    03 Oct 2011 12:24:05.419      1765.2578063    Earth           Umbra       165           1765.2578063
03 Oct 2011 13:53:19.019    03 Oct 2011 14:22:40.112      1761.0930286    Earth           Umbra       166           1761.0930286
03 Oct 2011 15:51:57.931    03 Oct 2011 16:21:14.802      1756.8714535    Earth           Umbra       167           1756.8714535
03 Oct 2011 17:50:36.901    03 Oct 2011 18:19:49.504      1752.6034536    Earth           Umbra       168           1752.6034536
03 Oct 2011 19:49:15.890    03 Oct 2011 20:18:24.201      1748.3111081    Earth           Umbra       169           1748.3111081
03 Oct 2011 21:47:54.860    03 Oct 2011 22:16:58.854      1743.9941973    Earth           Umbra       170           1743.9941973
03 Oct 2011 23:46:33.840    04 Oct 2011 00:15:33.486      1739.6460955    Earth           Umbra       171           1739.6460955
04 Oct 2011 01:45:12.934    04 Oct 2011 02:14:08.194      1735.2595896    Earth           Umbra       172           1735.2595896
04 Oct 2011 03:43:52.170    04 Oct 2011 04:12:42.988      1730.8182061    Earth           Umbra       173           1730.8182061
04 Oct 2011 05:42:31.409    04 Oct 2011 06:11:17.735      1726.3261539    Earth           Umbra       174           1726.3261539
04 Oct 2011 07:41:10.559    04 Oct 2011 08:09:52.368      1721.8082727    Earth           Umbra       175           1721.8082727
04 Oct 2011 09:39:49.709    04 Oct 2011 10:08:26.982      1717.2721696    Earth           Umbra       176           1717.2721696
04 Oct 2011 11:38:28.939    04 Oct 2011 12:07:01.648      1712.7092842    Earth           Umbra       177           1712.7092842
04 Oct 2011 13:37:08.231    04 Oct 2011 14:05:36.335      1708.1035240    Earth           Umbra       178           1708.1035240
04 Oct 2011 15:35:47.582    04 Oct 2011 16:04:11.019      1703.4372366    Earth           Umbra       179           1703.4372366
04 Oct 2011 17:34:26.993    04 Oct 2011 18:02:45.714      1698.7203978    Earth           Umbra       180           1698.7203978
04 Oct 2011 19:33:06.429    04 Oct 2011 20:01:20.406      1693.9764522    Earth           Umbra       181           1693.9764522
04 Oct 2011 21:31:45.851    04 Oct 2011 21:59:55.057      1689.2053408    Earth           Umbra       182           1689.2053408
04 Oct 2011 23:30:25.284    04 Oct 2011 23:58:29.685      1684.4010299    Earth           Umbra       183           1684.4010299
05 Oct 2011 01:29:04.832    05 Oct 2011 01:57:04.390      1679.5581507    Earth           Umbra       184           1679.5581507
05 Oct 2011 03:27:44.527    05 Oct 2011 03:55:39.185      1674.6580780    Earth           Umbra       185           1674.6580780
05 Oct 2011 05:26:24.234    05 Oct 2011 05:54:13.935      1669.7017508    Earth           Umbra       186           1669.7017508
05 Oct 2011 07:25:03.853    05 Oct 2011 07:52:48.570      1664.7175544    Earth           Umbra       187           1664.7175544
05 Oct 2011 09:23:43.467    05 Oct 2011 09:51:23.185      1659.7186411    Earth           Umbra       188           1659.7186411
05 Oct 2011 11:22:23.160    05 Oct 2011 11:49:57.856      1654.6961760    Earth           Umbra       189           1654.6961760
05 Oct 2011 13:21:02.920    05 Oct 2011 13:48:32.551      1649.6302126    Earth           Umbra       190           1649.6302126
05 Oct 2011 15:19:42.741    05 Oct 2011 15:47:07.241      1644.4999708    Earth           Umbra       191           1644.4999708
05 Oct 2011 17:18:22.627    05 Oct 2011 17:45:41.942      1639.3149585    Earth           Umbra       192           1639.3149585
05 Oct 2011 19:17:02.542    05 Oct 2011 19:44:16.642      1634.1000332    Earth           Umbra       193           1634.1000332
05 Oct 2011 21:15:42.449    05 Oct 2011 21:42:51.304      1628.8553762    Earth           Umbra       194           1628.8553762
05 Oct 2011 23:14:22.368    05 Oct 2011 23:41:25.944      1623.5759113    Earth           Umbra       195           1623.5759113
06 Oct 2011 01:13:02.400    06 Oct 2011 01:40:00.659      1618.2587372    Earth           Umbra       196           1618.2587372
06 Oct 2011 03:11:42.586    06 Oct 2011 03:38:35.469      1612.8828039    Earth           Umbra       197           1612.8828039
06 Oct 2011 05:10:22.793    06 Oct 2011 05:37:10.238      1607.4444586    Earth           Umbra       198           1607.4444586
06 Oct 2011 07:09:02.914    06 Oct 2011 07:35:44.889      1601.9755858    Earth           Umbra       199           1601.9755858
06 Oct 2011 09:07:43.024    06 Oct 2011 09:34:19.520      1596.4965617    Earth           Umbra       200           1596.4965617
06 Oct 2011 11:06:23.212    06 Oct 2011 11:32:54.211      1590.9989905    Earth           Umbra       201           1590.9989905
06 Oct 2011 13:05:03.470    06 Oct 2011 13:31:28.928      1585.4581544    Earth           Umbra       202           1585.4581544
06 Oct 2011 15:03:43.792    06 Oct 2011 15:30:03.641      1579.8493998    Earth           Umbra       203           1579.8493998
06 Oct 2011 17:02:24.181    06 Oct 2011 17:28:38.363      1574.1817641    Earth           Umbra       204           1574.1817641
06 Oct 2011 19:01:04.606    06 Oct 2011 19:27:13.088      1568.4816064    Earth           Umbra       205           1568.4816064
06 Oct 2011 20:59:45.027    06 Oct 2011 21:25:47.777      1562.7493923    Earth           Umbra       206           1562.7493923
06 Oct 2011 22:58:25.462    06 Oct 2011 23:24:22.444      1556.9814365    Earth           Umbra       207           1556.9814365
07 Oct 2011 00:57:06.009    07 Oct 2011 01:22:57.187      1551.1781364    Earth           Umbra       208           1551.1781364
07 Oct 2011 02:55:46.714    07 Oct 2011 03:21:32.030      1545.3157456    Earth           Umbra       209           1545.3157456
07 Oct 2011 04:54:27.450    07 Oct 2011 05:20:06.834      1539.3843681    Earth           Umbra       210           1539.3843681
07 Oct 2011 06:53:08.101    07 Oct 2011 07:18:41.520      1533.4191667    Earth           Umbra       211           1533.4191667
07 Oct 2011 08:51:48.735    07 Oct 2011 09:17:16.184      1527.4497582    Earth           Umbra       212           1527.4497582
07 Oct 2011 10:50:29.444    07 Oct 2011 11:15:50.913      1521.4692426    Earth           Umbra       213           1521.4692426
07 Oct 2011 12:49:10.226    07 Oct 2011 13:14:25.673      1515.4470290    Earth           Umbra       214           1515.4470290
07 Oct 2011 14:47:51.074    07 Oct 2011 15:13:00.428      1509.3535808    Earth           Umbra       215           1509.3535808
07 Oct 2011 16:46:31.994    07 Oct 2011 17:11:35.191      1503.1975270    Earth           Umbra       216           1503.1975270
07 Oct 2011 18:45:12.953    07 Oct 2011 19:10:09.960      1497.0069391    Earth           Umbra       217           1497.0069391
07 Oct 2011 20:43:53.913    07 Oct 2011 21:08:44.696      1490.7825399    Earth           Umbra       218           1490.7825399
07 Oct 2011 22:42:34.889    07 Oct 2011 23:07:19.411      1484.5225321    Earth           Umbra       219           1484.5225321
08 Oct 2011 00:41:15.973    08 Oct 2011 01:05:54.204      1478.2316995    Earth           Umbra       220           1478.2316995
08 Oct 2011 02:39:57.218    08 Oct 2011 03:04:29.101      1471.8833637    Earth           Umbra       221           1471.8833637
08 Oct 2011 04:38:38.504    08 Oct 2011 05:03:03.963      1465.4593444    Earth           Umbra       222           1465.4593444
08 Oct 2011 06:37:19.708    08 Oct 2011 07:01:38.706      1458.9976027    Earth           Umbra       223           1458.9976027
08 Oct 2011 08:36:00.887    08 Oct 2011 09:00:13.427      1452.5393952    Earth           Umbra       224           1452.5393952
08 Oct 2011 10:34:42.136    08 Oct 2011 10:58:48.217      1446.0808411    Earth           Umbra       225           1446.0808411
08 Oct 2011 12:33:23.460    08 Oct 2011 12:57:23.044      1439.5841943    Earth           Umbra       226           1439.5841943
08 Oct 2011 14:32:04.852    08 Oct 2011 14:55:57.866      1433.0136402    Earth           Umbra       227           1433.0136402
08 Oct 2011 16:30:46.318    08 Oct 2011 16:54:32.695      1426.3775391    Earth           Umbra       228           1426.3775391
08 Oct 2011 18:29:27.827    08 Oct 2011 18:53:07.533      1419.7060875    Earth           Umbra       229           1419.7060875
08 Oct 2011 20:28:09.343    08 Oct 2011 20:51:42.343      1413.0001766    Earth           Umbra       230           1413.0001766
08 Oct 2011 22:26:50.873    08 Oct 2011 22:50:17.133      1406.2604029    Earth           Umbra       231           1406.2604029
09 Oct 2011 00:25:32.506    09 Oct 2011 00:48:52.003      1399.4973518    Earth           Umbra       232           1399.4973518
09 Oct 2011 02:24:14.302    09 Oct 2011 02:47:26.983      1392.6812731    Earth           Umbra       233           1392.6812731
09 Oct 2011 04:22:56.149    09 Oct 2011 04:46:01.933      1385.7831892    Earth           Umbra       234           1385.7831892
09 Oct 2011 06:21:37.918    09 Oct 2011 06:44:36.761      1378.8430183    Earth           Umbra       235           1378.8430183
09 Oct 2011 08:20:19.651    09 Oct 2011 08:43:11.567      1371.9164903    Earth           Umbra       236           1371.9164903
09 Oct 2011 10:19:01.446    09 Oct 2011 10:41:46.450      1365.0048595    Earth           Umbra       237           1365.0048595
09 Oct 2011 12:17:43.315    09 Oct 2011 12:40:21.377      1358.0617997    Earth           Umbra       238           1358.0617997
09 Oct 2011 14:16:25.255    09 Oct 2011 14:38:56.298      1351.0433030    Earth           Umbra       239           1351.0433030
09 Oct 2011 16:15:07.269    09 Oct 2011 16:37:31.227      1343.9576561    Earth           Umbra       240           1343.9576561
09 Oct 2011 18:13:49.330    09 Oct 2011 18:36:06.168      1336.8379212    Earth           Umbra       241           1336.8379212
09 Oct 2011 20:12:31.400    09 Oct 2011 20:34:41.085      1329.6850192    Earth           Umbra       242           1329.6850192
09 Oct 2011 22:11:13.484    09 Oct 2011 22:33:15.986      1322.5024072    Earth           Umbra       243           1322.5024072
10 Oct 2011 00:09:55.663    10 Oct 2011 00:31:50.971      1315.3082430    Earth           Umbra       244           1315.3082430
10 Oct 2011 02:08:38.002    10 Oct 2011 02:30:26.072      1308.0697516    Earth           Umbra       245           1308.0697516
10 Oct 2011 04:07:20.403    10 Oct 2011 04:29:01.147      1300.7441250    Earth           Umbra       246           1300.7441250
10 Oct 2011 06:06:02.728    10 Oct 2011 06:27:36.100      1293.3719081    Earth           Umbra       247           1293.3719081
10 Oct 2011 08:04:45.006    10 Oct 2011 08:26:11.033      1286.0265543    Earth           Umbra       248           1286.0265543
10 Oct 2011 10:03:27.333    10 Oct 2011 10:24:46.050      1278.7173563    Earth           Umbra       249           1278.7173563
10 Oct 2011 12:02:09.731    10 Oct 2011 12:23:21.119      1271.3878924    Earth           Umbra       250           1271.3878924
10 Oct 2011 14:00:52.201    10 Oct 2011 14:21:56.185      1263.9834123    Earth           Umbra       251           1263.9834123
10 Oct 2011 15:59:34.745    10 Oct 2011 16:20:31.258      1256.5122816    Earth           Umbra       252           1256.5122816
10 Oct 2011 17:58:17.336    10 Oct 2011 18:19:06.348      1249.0116578    Earth           Umbra       253           1249.0116578
10 Oct 2011 19:56:59.938    10 Oct 2011 20:17:41.420      1241.4823946    Earth           Umbra       254           1241.4823946
10 Oct 2011 21:55:42.550    10 Oct 2011 22:16:16.481      1233.9311032    Earth           Umbra       255           1233.9311032
10 Oct 2011 23:54:25.245    11 Oct 2011 00:14:51.630      1226.3856697    Earth           Umbra       256           1226.3856697
11 Oct 2011 01:53:08.094    11 Oct 2011 02:13:26.905      1218.8106612    Earth           Umbra       257           1218.8106612
11 Oct 2011 03:51:51.014    11 Oct 2011 04:12:02.160      1211.1458654    Earth           Umbra       258           1211.1458654
11 Oct 2011 05:50:33.861    11 Oct 2011 06:10:37.292      1203.4304514    Earth           Umbra       259           1203.4304514
11 Oct 2011 07:49:16.646    11 Oct 2011 08:09:12.405      1195.7592441    Earth           Umbra       260           1195.7592441
11 Oct 2011 09:47:59.462    11 Oct 2011 10:07:47.615      1188.1534236    Earth           Umbra       261           1188.1534236
11 Oct 2011 11:46:42.342    11 Oct 2011 12:06:22.887      1180.5450177    Earth           Umbra       262           1180.5450177
11 Oct 2011 13:45:25.294    11 Oct 2011 14:04:58.159      1172.8652031    Earth           Umbra       263           1172.8652031
11 Oct 2011 15:44:08.316    11 Oct 2011 16:03:33.438      1165.1224390    Earth           Umbra       264           1165.1224390
11 Oct 2011 17:42:51.381    11 Oct 2011 18:02:08.741      1157.3598308    Earth           Umbra       265           1157.3598308
11 Oct 2011 19:41:34.457    11 Oct 2011 20:00:44.036      1149.5782487    Earth           Umbra       266           1149.5782487
11 Oct 2011 21:40:17.537    11 Oct 2011 21:59:19.324      1141.7874789    Earth           Umbra       267           1141.7874789
11 Oct 2011 23:39:00.682    11 Oct 2011 23:57:54.709      1134.0275897    Earth           Umbra       268           1134.0275897
12 Oct 2011 01:37:43.970    12 Oct 2011 01:56:30.231      1126.2613392    Earth           Umbra       269           1126.2613392
12 Oct 2011 03:36:27.334    12 Oct 2011 03:55:05.741      1118.4070711    Earth           Umbra       270           1118.4070711
12 Oct 2011 05:35:10.628    12 Oct 2011 05:53:41.128      1110.4997447    Earth           Umbra       271           1110.4997447
12 Oct 2011 07:33:53.842    12 Oct 2011 07:52:16.501      1102.6594143    Earth           Umbra       272           1102.6594143
12 Oct 2011 09:32:37.061    12 Oct 2011 09:50:51.985      1094.9240623    Earth           Umbra       273           1094.9240623
12 Oct 2011 11:31:20.332    12 Oct 2011 11:49:27.545      1087.2130258    Earth           Umbra       274           1087.2130258
12 Oct 2011 13:30:03.670    12 Oct 2011 13:48:03.109      1079.4392696    Earth           Umbra       275           1079.4392696
12 Oct 2011 15:28:47.073    12 Oct 2011 15:46:38.684      1071.6109931    Earth           Umbra       276           1071.6109931
12 Oct 2011 17:27:30.511    12 Oct 2011 17:45:14.291      1063.7798327    Earth           Umbra       277           1063.7798327
12 Oct 2011 19:26:13.954    12 Oct 2011 19:43:49.902      1055.9471797    Earth           Umbra       278           1055.9471797
12 Oct 2011 21:24:57.390    12 Oct 2011 21:42:25.516      1048.1256139    Earth           Umbra       279           1048.1256139
12 Oct 2011 23:23:40.868    12 Oct 2011 23:41:01.238      1040.3699174    Earth           Umbra       280           1040.3699174
13 Oct 2011 01:22:24.469    13 Oct 2011 01:39:37.112      1032.6425221    Earth           Umbra       281           1032.6425221
13 Oct 2011 03:21:08.148    13 Oct 2011 03:38:12.984      1024.8360771    Earth           Umbra       282           1024.8360771
13 Oct 2011 05:19:51.758    13 Oct 2011 05:36:48.736      1016.9775051    Earth           Umbra       283           1016.9775051
13 Oct 2011 07:18:35.265    13 Oct 2011 07:35:24.481      1009.2157924    Earth           Umbra       284           1009.2157924
13 Oct 2011 09:17:18.743    13 Oct 2011 09:34:00.355      1001.6116488    Earth           Umbra       285           1001.6116488
13 Oct 2011 11:16:02.252    13 Oct 2011 11:32:36.324      994.07123567    Earth           Umbra       286           994.07123567
13 Oct 2011 13:14:45.821    13 Oct 2011 13:31:12.306      986.48455854    Earth           Umbra       287           986.48455854
13 Oct 2011 15:13:29.445    13 Oct 2011 15:29:48.303      978.85853938    Earth           Umbra       288           978.85853938
13 Oct 2011 17:12:13.088    13 Oct 2011 17:28:24.345      971.25655292    Earth           Umbra       289           971.25655292
13 Oct 2011 19:10:56.724    13 Oct 2011 19:27:00.406      963.68173953    Earth           Umbra       290           963.68173953
13 Oct 2011 21:09:40.336    13 Oct 2011 21:25:36.485      956.14861679    Earth           Umbra       291           956.14861679
13 Oct 2011 23:08:23.959    13 Oct 2011 23:24:12.688      948.72877956    Earth           Umbra       292           948.72877956
14 Oct 2011 01:07:07.676    14 Oct 2011 01:22:49.063      941.38650647    Earth           Umbra       293           941.38650647
14 Oct 2011 03:05:51.466    14 Oct 2011 03:21:25.451      933.98483890    Earth           Umbra       294           933.98483890
14 Oct 2011 05:04:35.186    14 Oct 2011 05:20:01.724      926.53782890    Earth           Umbra       295           926.53782890
14 Oct 2011 07:03:18.774    14 Oct 2011 07:18:38.000      919.22613803    Earth           Umbra       296           919.22613803
14 Oct 2011 09:02:02.290    14 Oct 2011 09:17:14.429      912.13961912    Earth           Umbra       297           912.13961912
14 Oct 2011 11:00:45.806    14 Oct 2011 11:15:50.978      905.17191275    Earth           Umbra       298           905.17191275
14 Oct 2011 12:59:29.368    14 Oct 2011 13:14:27.554      898.18526348    Earth           Umbra       299           898.18526348
14 Oct 2011 14:58:12.970    14 Oct 2011 15:13:04.153      891.18333285    Earth           Umbra       300           891.18333285
14 Oct 2011 16:56:56.568    14 Oct 2011 17:11:40.813      884.24452487    Earth           Umbra       301           884.24452487
14 Oct 2011 18:55:40.138    14 Oct 2011 19:10:17.514      877.37588474    Earth           Umbra       302           877.37588474
14 Oct 2011 20:54:23.660    14 Oct 2011 21:08:54.252      870.59249704    Earth           Umbra       303           870.59249704
14 Oct 2011 22:53:07.153    14 Oct 2011 23:07:31.136      863.98351716    Earth           Umbra       304           863.98351716
15 Oct 2011 00:51:50.701    15 Oct 2011 01:06:08.219      857.51765472    Earth           Umbra       305           857.51765472
15 Oct 2011 02:50:34.308    15 Oct 2011 03:04:45.334      851.02577809    Earth           Umbra       306           851.02577809
15 Oct 2011 04:49:17.839    15 Oct 2011 05:03:22.343      844.50350030    Earth           Umbra       307           844.50350030
15 Oct 2011 06:48:01.206    15 Oct 2011 07:01:59.369      838.16341355    Earth           Umbra       308           838.16341355
15 Oct 2011 08:46:44.448    15 Oct 2011 09:00:36.578      832.12999004    Earth           Umbra       309           832.12999004
15 Oct 2011 10:45:27.650    15 Oct 2011 10:59:13.936      826.28657160    Earth           Umbra       310           826.28657160
15 Oct 2011 12:44:10.876    15 Oct 2011 12:57:51.340      820.46405270    Earth           Umbra       311           820.46405270
15 Oct 2011 14:42:54.121    15 Oct 2011 14:56:28.780      814.65961043    Earth           Umbra       312           814.65961043
15 Oct 2011 16:41:37.332    15 Oct 2011 16:55:06.301      808.96874063    Earth           Umbra       313           808.96874063
15 Oct 2011 18:40:20.485    15 Oct 2011 18:53:43.890      803.40523197    Earth           Umbra       314           803.40523197
15 Oct 2011 20:39:03.559    15 Oct 2011 20:52:21.542      797.98285140    Earth           Umbra       315           797.98285140
15 Oct 2011 22:37:46.558    15 Oct 2011 22:50:59.364      792.80619848    Earth           Umbra       316           792.80619848
16 Oct 2011 00:36:29.564    16 Oct 2011 00:49:37.415      787.85056786    Earth           Umbra       317           787.85056786
16 Oct 2011 02:35:12.608    16 Oct 2011 02:48:15.523      782.91501295    Earth           Umbra       318           782.91501295
16 Oct 2011 04:33:55.566    16 Oct 2011 04:46:53.537      777.97120741    Earth           Umbra       319           777.97120741
16 Oct 2011 06:32:38.325    16 Oct 2011 06:45:31.584      773.25904352    Earth           Umbra       320           773.25904352
16 Oct 2011 08:31:20.902    16 Oct 2011 08:44:09.841      768.93931112    Earth           Umbra       321           768.93931112
16 Oct 2011 10:30:03.392    16 Oct 2011 10:42:48.281      764.88909168    Earth           Umbra       322           764.88909168
16 Oct 2011 12:28:45.881    16 Oct 2011 12:41:26.788      760.90765205    Earth           Umbra       323           760.90765205
16 Oct 2011 14:27:28.366    16 Oct 2011 14:40:05.347      756.98132396    Earth           Umbra       324           756.98132396
16 Oct 2011 16:26:10.784    16 Oct 2011 16:38:44.006      753.22134794    Earth           Umbra       325           753.22134794
16 Oct 2011 18:24:53.109    16 Oct 2011 18:37:22.760      749.65075211    Earth           Umbra       326           749.65075211
16 Oct 2011 20:23:35.322    16 Oct 2011 20:36:01.601      746.27967963    Earth           Umbra       327           746.27967963
16 Oct 2011 22:22:17.414    16 Oct 2011 22:34:40.636      743.22164892    Earth           Umbra       328           743.22164892
17 Oct 2011 00:20:59.467    17 Oct 2011 00:33:19.926      740.45897940    Earth           Umbra       329           740.45897940
17 Oct 2011 02:19:41.532    17 Oct 2011 02:31:59.296      737.76415677    Earth           Umbra       330           737.76415677
17 Oct 2011 04:18:23.503    17 Oct 2011 04:30:38.584      735.08128402    Earth           Umbra       331           735.08128402
17 Oct 2011 06:17:05.248    17 Oct 2011 06:29:17.913      732.66576987    Earth           Umbra       332           732.66576987
17 Oct 2011 08:15:46.762    17 Oct 2011 08:27:57.471      730.70929066    Earth           Umbra       333           730.70929066
17 Oct 2011 10:14:28.146    17 Oct 2011 10:26:37.235      729.08854689    Earth           Umbra       334           729.08854689
17 Oct 2011 12:13:09.507    17 Oct 2011 12:25:17.084      727.57694306    Earth           Umbra       335           727.57694306
17 Oct 2011 14:11:50.847    17 Oct 2011 14:23:56.992      726.14572659    Earth           Umbra       336           726.14572659
17 Oct 2011 16:10:32.095    17 Oct 2011 16:22:37.010      724.91543692    Earth           Umbra       337           724.91543692
17 Oct 2011 18:09:13.221    17 Oct 2011 18:21:17.141      723.91916957    Earth           Umbra       338           723.91916957
17 Oct 2011 20:07:54.211    17 Oct 2011 20:19:57.373      723.16161892    Earth           Umbra       339           723.16161892
17 Oct 2011 22:06:35.051    17 Oct 2011 22:18:37.806      722.75482578    Earth           Umbra       340           722.75482578
18 Oct 2011 00:05:15.817    18 Oct 2011 00:17:18.504      722.68654701    Earth           Umbra       341           722.68654701
18 Oct 2011 02:03:56.580    18 Oct 2011 02:15:59.294      722.71434967    Earth           Umbra       342           722.71434967
18 Oct 2011 04:02:37.248    18 Oct 2011 04:14:40.004      722.75580206    Earth           Umbra       343           722.75580206
18 Oct 2011 06:01:17.682    18 Oct 2011 06:13:20.746      723.06414881    Earth           Umbra       344           723.06414881
18 Oct 2011 07:59:57.861    18 Oct 2011 08:12:01.710      723.84905799    Earth           Umbra       345           723.84905799
18 Oct 2011 09:58:37.886    18 Oct 2011 10:10:42.881      724.99460096    Earth           Umbra       346           724.99460096
18 Oct 2011 11:57:17.878    18 Oct 2011 12:09:24.140      726.26180988    Earth           Umbra       347           726.26180988
18 Oct 2011 13:55:57.848    18 Oct 2011 14:08:05.454      727.60553561    Earth           Umbra       348           727.60553561
18 Oct 2011 15:54:37.720    18 Oct 2011 16:06:46.866      729.14564651    Earth           Umbra       349           729.14564651
18 Oct 2011 17:53:17.461    18 Oct 2011 18:05:28.386      730.92438768    Earth           Umbra       350           730.92438768
18 Oct 2011 19:51:57.060    18 Oct 2011 20:04:10.002      732.94164377    Earth           Umbra       351           732.94164377
18 Oct 2011 21:50:36.504    18 Oct 2011 22:02:51.802      735.29820379    Earth           Umbra       352           735.29820379
18 Oct 2011 23:49:15.865    19 Oct 2011 00:01:33.851      737.98542833    Earth           Umbra       353           737.98542833
19 Oct 2011 01:47:55.223    19 Oct 2011 02:00:15.986      740.76259624    Earth           Umbra       354           740.76259624
19 Oct 2011 03:46:34.501    19 Oct 2011 03:58:58.029      743.52807360    Earth           Umbra       355           743.52807360
19 Oct 2011 05:45:13.558    19 Oct 2011 05:57:40.074      746.51587611    Earth           Umbra       356           746.51587611
19 Oct 2011 07:43:52.366    19 Oct 2011 07:56:22.304      749.93827570    Earth           Umbra       357           749.93827570
19 Oct 2011 09:42:31.023    19 Oct 2011 09:55:04.718      753.69518237    Earth           Umbra       358           753.69518237
19 Oct 2011 11:41:09.652    19 Oct 2011 11:53:47.205      757.55345046    Earth           Umbra       359           757.55345046
19 Oct 2011 13:39:48.273    19 Oct 2011 13:52:29.728      761.45491668    Earth           Umbra       360           761.45491668
19 Oct 2011 15:38:26.810    19 Oct 2011 15:51:12.320      765.50965228    Earth           Umbra       361           765.50965228
19 Oct 2011 17:37:05.226    19 Oct 2011 17:49:54.993      769.76723392    Earth           Umbra       362           769.76723392
19 Oct 2011 19:35:43.512    19 Oct 2011 19:48:37.738      774.22628581    Earth           Umbra       363           774.22628581
19 Oct 2011 21:34:21.660    19 Oct 2011 21:47:20.632      778.97169201    Earth           Umbra       364           778.97169201
19 Oct 2011 23:32:59.738    19 Oct 2011 23:46:03.736      783.99777588    Earth           Umbra       365           783.99777588
20 Oct 2011 01:31:37.825    20 Oct 2011 01:44:46.906      789.08111748    Earth           Umbra       366           789.08111748
20 Oct 2011 03:30:15.855    20 Oct 2011 03:43:29.966      794.11164208    Earth           Umbra       367           794.11164208
20 Oct 2011 05:28:53.692    20 Oct 2011 05:42:12.986      799.29383837    Earth           Umbra       368           799.29383837
20 Oct 2011 07:27:31.307    20 Oct 2011 07:40:56.137      804.83029968    Earth           Umbra       369           804.83029968
20 Oct 2011 09:26:08.789    20 Oct 2011 09:39:39.431      810.64251009    Earth           Umbra       370           810.64251009
20 Oct 2011 11:24:46.258    20 Oct 2011 11:38:22.777      816.51862141    Earth           Umbra       371           816.51862141
20 Oct 2011 13:23:23.739    20 Oct 2011 13:37:06.132      822.39336324    Earth           Umbra       372           822.39336324
20 Oct 2011 15:22:01.160    20 Oct 2011 15:35:49.521      828.36139690    Earth           Umbra       373           828.36139690
20 Oct 2011 17:20:38.479    20 Oct 2011 17:34:32.956      834.47698747    Earth           Umbra       374           834.47698747
20 Oct 2011 19:19:15.689    20 Oct 2011 19:33:16.430      840.74130517    Earth           Umbra       375           840.74130517
20 Oct 2011 21:17:52.786    20 Oct 2011 21:32:00.009      847.22361731    Earth           Umbra       376           847.22361731
20 Oct 2011 23:16:29.835    20 Oct 2011 23:30:43.756      853.92092213    Earth           Umbra       377           853.92092213
21 Oct 2011 01:15:06.910    21 Oct 2011 01:29:27.546      860.63597761    Earth           Umbra       378           860.63597761
21 Oct 2011 03:13:43.948    21 Oct 2011 03:28:11.208      867.25941816    Earth           Umbra       379           867.25941816
21 Oct 2011 05:12:20.826    21 Oct 2011 05:26:54.789      873.96333315    Earth           Umbra       380           873.96333315
21 Oct 2011 07:10:57.512    21 Oct 2011 07:25:38.445      880.93324323    Earth           Umbra       381           880.93324323
21 Oct 2011 09:09:34.089    21 Oct 2011 09:24:22.202      888.11301375    Earth           Umbra       382           888.11301375
21 Oct 2011 11:08:10.668    21 Oct 2011 11:23:05.988      895.32010067    Earth           Umbra       383           895.32010067
21 Oct 2011 13:06:47.276    21 Oct 2011 13:21:49.764      902.48739137    Earth           Umbra       384           902.48739137
21 Oct 2011 15:05:23.848    21 Oct 2011 15:20:33.540      909.69188861    Earth           Umbra       385           909.69188861
21 Oct 2011 17:04:00.338    21 Oct 2011 17:19:17.327      916.98926277    Earth           Umbra       386           916.98926277
21 Oct 2011 19:02:36.738    21 Oct 2011 19:18:01.123      924.38520718    Earth           Umbra       387           924.38520718
21 Oct 2011 21:01:13.049    21 Oct 2011 21:16:44.985      931.93590960    Earth           Umbra       388           931.93590960
21 Oct 2011 22:59:49.334    21 Oct 2011 23:15:28.975      939.64045253    Earth           Umbra       389           939.64045253
22 Oct 2011 00:58:25.659    22 Oct 2011 01:14:12.989      947.32967040    Earth           Umbra       390           947.32967040
22 Oct 2011 02:57:01.964    22 Oct 2011 03:12:56.864      954.90031462    Earth           Umbra       391           954.90031462
22 Oct 2011 04:55:38.133    22 Oct 2011 05:11:40.627      962.49398666    Earth           Umbra       392           962.49398666
22 Oct 2011 06:54:14.140    22 Oct 2011 07:10:24.416      970.27590796    Earth           Umbra       393           970.27590796
22 Oct 2011 08:52:50.058    22 Oct 2011 09:09:08.268      978.20947298    Earth           Umbra       394           978.20947298
22 Oct 2011 10:51:25.990    22 Oct 2011 11:07:52.132      986.14287173    Earth           Umbra       395           986.14287173
22 Oct 2011 12:50:01.964    22 Oct 2011 13:06:35.974      994.01067946    Earth           Umbra       396           994.01067946
22 Oct 2011 14:48:37.919    22 Oct 2011 15:05:19.791      1001.8723428    Earth           Umbra       397           1001.8723428
22 Oct 2011 16:47:13.808    22 Oct 2011 17:04:03.590      1009.7818736    Earth           Umbra       398           1009.7818736
22 Oct 2011 18:45:49.624    22 Oct 2011 19:02:47.374      1017.7496880    Earth           Umbra       399           1017.7496880
22 Oct 2011 20:44:25.369    22 Oct 2011 21:01:31.191      1025.8218540    Earth           Umbra       400           1025.8218540
22 Oct 2011 22:43:01.106    22 Oct 2011 23:00:15.105      1033.9989184    Earth           Umbra       401           1033.9989184
23 Oct 2011 00:41:36.893    23 Oct 2011 00:58:59.030      1042.1376781    Earth           Umbra       402           1042.1376781
23 Oct 2011 02:40:12.669    23 Oct 2011 02:57:42.813      1050.1433465    Earth           Umbra       403           1050.1433465
23 Oct 2011 04:38:48.330    23 Oct 2011 04:56:26.461      1058.1310830    Earth           Umbra       404           1058.1310830
23 Oct 2011 06:37:23.853    23 Oct 2011 06:55:10.098      1066.2454173    Earth           Umbra       405           1066.2454173
23 Oct 2011 08:35:59.301    23 Oct 2011 08:53:53.767      1074.4650667    Earth           Umbra       406           1074.4650667
23 Oct 2011 10:34:34.770    23 Oct 2011 10:52:37.437      1082.6667550    Earth           Umbra       407           1082.6667550
23 Oct 2011 12:33:10.290    23 Oct 2011 12:51:21.079      1090.7888507    Earth           Umbra       408           1090.7888507
23 Oct 2011 14:31:45.805    23 Oct 2011 14:50:04.680      1098.8746858    Earth           Umbra       409           1098.8746858
23 Oct 2011 16:30:21.266    23 Oct 2011 16:48:48.241      1106.9743596    Earth           Umbra       410           1106.9743596
23 Oct 2011 18:28:56.664    23 Oct 2011 18:47:31.766      1115.1023007    Earth           Umbra       411           1115.1023007
23 Oct 2011 20:27:32.006    23 Oct 2011 20:46:15.303      1123.2970690    Earth           Umbra       412           1123.2970690
23 Oct 2011 22:26:07.352    23 Oct 2011 22:44:58.913      1131.5602971    Earth           Umbra       413           1131.5602971
24 Oct 2011 00:24:42.755    24 Oct 2011 00:43:42.527      1139.7712186    Earth           Umbra       414           1139.7712186
24 Oct 2011 02:23:18.155    24 Oct 2011 02:42:25.999      1147.8440632    Earth           Umbra       415           1147.8440632
24 Oct 2011 04:21:53.452    24 Oct 2011 04:41:09.324      1155.8720790    Earth           Umbra       416           1155.8720790
24 Oct 2011 06:20:28.629    24 Oct 2011 06:39:52.609      1163.9803111    Earth           Umbra       417           1163.9803111
24 Oct 2011 08:19:03.744    24 Oct 2011 08:38:35.903      1172.1586753    Earth           Umbra       418           1172.1586753
24 Oct 2011 10:17:38.883    24 Oct 2011 10:37:19.192      1180.3088376    Earth           Umbra       419           1180.3088376
24 Oct 2011 12:16:14.078    24 Oct 2011 12:36:02.452      1188.3741397    Earth           Umbra       420           1188.3741397
24 Oct 2011 14:14:49.277    24 Oct 2011 14:34:45.661      1196.3838290    Earth           Umbra       421           1196.3838290
24 Oct 2011 16:13:24.432    24 Oct 2011 16:33:28.814      1204.3827018    Earth           Umbra       422           1204.3827018
24 Oct 2011 18:11:59.531    24 Oct 2011 18:32:11.919      1212.3882140    Earth           Umbra       423           1212.3882140
24 Oct 2011 20:10:34.584    24 Oct 2011 20:30:55.017      1220.4334750    Earth           Umbra       424           1220.4334750
24 Oct 2011 22:09:09.650    24 Oct 2011 22:29:38.171      1228.5210402    Earth           Umbra       425           1228.5210402
25 Oct 2011 00:07:44.778    25 Oct 2011 00:28:21.327      1236.5490004    Earth           Umbra       426           1236.5490004
25 Oct 2011 02:06:19.906    25 Oct 2011 02:27:04.346      1244.4402772    Earth           Umbra       427           1244.4402772
25 Oct 2011 04:04:54.942    25 Oct 2011 04:25:47.212      1252.2704095    Earth           Umbra       428           1252.2704095
25 Oct 2011 06:03:29.871    25 Oct 2011 06:24:30.018      1260.1469060    Earth           Umbra       429           1260.1469060
25 Oct 2011 08:02:04.747    25 Oct 2011 08:23:12.815      1268.0673921    Earth           Umbra       430           1268.0673921
25 Oct 2011 10:00:39.649    25 Oct 2011 10:21:55.604      1275.9546183    Earth           Umbra       431           1275.9546183
25 Oct 2011 11:59:14.610    25 Oct 2011 12:20:38.367      1283.7575353    Earth           Umbra       432           1283.7575353
25 Oct 2011 13:57:49.581    25 Oct 2011 14:19:21.074      1291.4934572    Earth           Umbra       433           1291.4934572
25 Oct 2011 15:56:24.514    25 Oct 2011 16:18:03.715      1299.2011635    Earth           Umbra       434           1299.2011635
25 Oct 2011 17:54:59.397    25 Oct 2011 18:16:46.297      1306.9001832    Earth           Umbra       435           1306.9001832
25 Oct 2011 19:53:34.241    25 Oct 2011 20:15:28.861      1314.6197098    Earth           Umbra       436           1314.6197098
25 Oct 2011 21:52:09.106    25 Oct 2011 22:14:11.469      1322.3631500    Earth           Umbra       437           1322.3631500
25 Oct 2011 23:50:44.034    26 Oct 2011 00:12:54.078      1330.0443018    Earth           Umbra       438           1330.0443018
26 Oct 2011 01:49:18.966    26 Oct 2011 02:11:36.560      1337.5940980    Earth           Umbra       439           1337.5940980
26 Oct 2011 03:47:53.812    26 Oct 2011 04:10:18.886      1345.0739678    Earth           Umbra       440           1345.0739678
26 Oct 2011 05:46:28.561    26 Oct 2011 06:09:01.137      1352.5760497    Earth           Umbra       441           1352.5760497
26 Oct 2011 07:45:03.265    26 Oct 2011 08:07:43.368      1360.1029121    Earth           Umbra       442           1360.1029121
26 Oct 2011 09:43:37.995    26 Oct 2011 10:06:25.590      1367.5947742    Earth           Umbra       443           1367.5947742
26 Oct 2011 11:42:12.784    26 Oct 2011 12:05:07.791      1375.0064749    Earth           Umbra       444           1375.0064749
26 Oct 2011 13:40:47.590    26 Oct 2011 14:03:49.935      1382.3454602    Earth           Umbra       445           1382.3454602
26 Oct 2011 15:39:22.362    26 Oct 2011 16:02:32.006      1389.6442218    Earth           Umbra       446           1389.6442218
26 Oct 2011 17:37:57.087    26 Oct 2011 18:01:14.011      1396.9235605    Earth           Umbra       447           1396.9235605
26 Oct 2011 19:36:31.779    26 Oct 2011 19:59:55.989      1404.2098655    Earth           Umbra       448           1404.2098655
26 Oct 2011 21:35:06.496    26 Oct 2011 21:58:38.003      1411.5073368    Earth           Umbra       449           1411.5073368
26 Oct 2011 23:33:41.279    26 Oct 2011 23:57:20.022      1418.7428321    Earth           Umbra       450           1418.7428321
27 Oct 2011 01:32:16.067    27 Oct 2011 01:56:01.922      1425.8545307    Earth           Umbra       451           1425.8545307
27 Oct 2011 03:30:50.774    27 Oct 2011 03:54:43.667      1432.8927154    Earth           Umbra       452           1432.8927154
27 Oct 2011 05:29:25.393    27 Oct 2011 05:53:25.329      1439.9362767    Earth           Umbra       453           1439.9362767
27 Oct 2011 07:27:59.971    27 Oct 2011 07:52:06.962      1446.9906075    Earth           Umbra       454           1446.9906075
27 Oct 2011 09:26:34.576    27 Oct 2011 09:50:48.586      1454.0101822    Earth           Umbra       455           1454.0101822
27 Oct 2011 11:25:09.240    27 Oct 2011 11:49:30.196      1460.9557887    Earth           Umbra       456           1460.9557887
27 Oct 2011 13:23:43.923    27 Oct 2011 13:48:11.750      1467.8268749    Earth           Umbra       457           1467.8268749
27 Oct 2011 15:22:18.578    27 Oct 2011 15:46:53.227      1474.6496659    Earth           Umbra       458           1474.6496659
27 Oct 2011 17:20:53.188    27 Oct 2011 17:45:34.634      1481.4455859    Earth           Umbra       459           1481.4455859
27 Oct 2011 19:19:27.769    27 Oct 2011 19:44:16.008      1488.2390293    Earth           Umbra       460           1488.2390293
27 Oct 2011 21:18:02.378    27 Oct 2011 21:42:57.413      1495.0349031    Earth           Umbra       461           1495.0349031
27 Oct 2011 23:16:37.054    27 Oct 2011 23:41:38.825      1501.7709367    Earth           Umbra       462           1501.7709367
28 Oct 2011 01:15:11.737    28 Oct 2011 01:40:20.129      1508.3918234    Earth           Umbra       463           1508.3918234
