Runs/SAOCOM_EpMar00-SMA6994-ECC0001252-INC97.8848-RAAN205.4838-AOP81.9149-TA27802162_NadE100-V010/Eclipse-SAOCOM_EpMar00-SMA6994-ECC0001252-INC97.8848-RAAN205.4838-AOP81.9149-TA27802162_NadE100-V010.txt

Spacecraft: Sat

Start Time (UTC)            Stop Time (UTC)               Duration (s)    Occ Body        Type        Event Number  Total Duration (s)
21 Mar 2023 00:37:03.442    21 Mar 2023 01:10:37.340      2013.8973168    Earth           Umbra       1             2013.8973168
21 Mar 2023 02:14:01.554    21 Mar 2023 02:47:35.368      2013.8140977    Earth           Umbra       2             2013.8140977
21 Mar 2023 03:50:59.634    21 Mar 2023 04:24:33.375      2013.7410516    Earth           Umbra       3             2013.7410516
21 Mar 2023 05:27:57.723    21 Mar 2023 06:01:31.393      2013.6696444    Earth           Umbra       4             2013.6696444
21 Mar 2023 07:04:55.890    21 Mar 2023 07:38:29.473      2013.5834980    Earth           Umbra       5             2013.5834980
21 Mar 2023 08:41:54.138    21 Mar 2023 09:15:27.624      2013.4866072    Earth           Umbra       6             2013.4866072
21 Mar 2023 10:18:52.372    21 Mar 2023 10:52:25.771      2013.3984281    Earth           Umbra       7             2013.3984281
21 Mar 2023 11:55:50.512    21 Mar 2023 12:29:23.843      2013.3305284    Earth           Umbra       8             2013.3305284
21 Mar 2023 13:32:48.584    21 Mar 2023 14:06:21.861      2013.2769194    Earth           Umbra       9             2013.2769194
21 Mar 2023 15:09:46.662    21 Mar 2023 15:43:19.882      2013.2201199    Earth           Umbra       10            2013.2201199
21 Mar 2023 16:46:44.778    21 Mar 2023 17:20:17.925      2013.1468456    Earth           Umbra       11            2013.1468456
21 Mar 2023 18:23:42.939    21 Mar 2023 18:57:16.003      2013.0644082    Earth           Umbra       12            2013.0644082
21 Mar 2023 20:00:41.148    21 Mar 2023 20:34:14.141      2012.9932132    Earth           Umbra       13            2012.9932132
21 Mar 2023 21:37:39.376    21 Mar 2023 22:11:12.312      2012.9363358    Earth           Umbra       14            2012.9363358
21 Mar 2023 23:14:37.574    21 Mar 2023 23:48:10.447      2012.8732993    Earth           Umbra       15            2012.8732993
22 Mar 2023 00:51:35.723    22 Mar 2023 01:25:08.516      2012.7930405    Earth           Umbra       16            2012.7930405
22 Mar 2023 02:28:33.829    22 Mar 2023 03:02:06.539      2012.7106779    Earth           Umbra       17            2012.7106779
22 Mar 2023 04:05:31.906    22 Mar 2023 04:39:04.545      2012.6389092    Earth           Umbra       18            2012.6389092
22 Mar 2023 05:42:30.003    22 Mar 2023 06:16:02.569      2012.5659401    Earth           Umbra       19            2012.5659401
22 Mar 2023 07:19:28.184    22 Mar 2023 07:53:00.661      2012.4771821    Earth           Umbra       20            2012.4771821
22 Mar 2023 08:56:26.438    22 Mar 2023 09:29:58.818      2012.3802079    Earth           Umbra       21            2012.3802079
22 Mar 2023 10:33:24.662    22 Mar 2023 11:06:56.956      2012.2946827    Earth           Umbra       22            2012.2946827
22 Mar 2023 12:10:22.787    22 Mar 2023 12:43:55.017      2012.2296002    Earth           Umbra       23            2012.2296002
22 Mar 2023 13:47:20.856    22 Mar 2023 14:20:53.032      2012.1765535    Earth           Umbra       24            2012.1765535
22 Mar 2023 15:24:18.938    22 Mar 2023 15:57:51.056      2012.1175516    Earth           Umbra       25            2012.1175516
22 Mar 2023 17:01:17.060    22 Mar 2023 17:34:49.102      2012.0417102    Earth           Umbra       26            2012.0417102
22 Mar 2023 18:38:15.229    22 Mar 2023 19:11:47.188      2011.9596573    Earth           Umbra       27            2011.9596573
22 Mar 2023 20:15:13.443    22 Mar 2023 20:48:45.334      2011.8911135    Earth           Umbra       28            2011.8911135
22 Mar 2023 21:52:11.670    22 Mar 2023 22:25:43.505      2011.8347428    Earth           Umbra       29            2011.8347428
22 Mar 2023 23:29:09.861    23 Mar 2023 00:02:41.630      2011.7689692    Earth           Umbra       30            2011.7689692
23 Mar 2023 01:06:08.003    23 Mar 2023 01:39:39.690      2011.6868798    Earth           Umbra       31            2011.6868798
23 Mar 2023 02:43:06.104    23 Mar 2023 03:16:37.709      2011.6057804    Earth           Umbra       32            2011.6057804
23 Mar 2023 04:20:04.180    23 Mar 2023 04:53:35.715      2011.5350214    Earth           Umbra       33            2011.5350214
23 Mar 2023 05:57:02.286    23 Mar 2023 06:30:33.746      2011.4601418    Earth           Umbra       34            2011.4601418
23 Mar 2023 07:34:00.481    23 Mar 2023 08:07:31.851      2011.3690216    Earth           Umbra       35            2011.3690216
23 Mar 2023 09:10:58.739    23 Mar 2023 09:44:30.011      2011.2725200    Earth           Umbra       36            2011.2725200
23 Mar 2023 10:47:56.950    23 Mar 2023 11:21:28.140      2011.1899106    Earth           Umbra       37            2011.1899106
23 Mar 2023 12:24:55.062    23 Mar 2023 12:58:26.190      2011.1274628    Earth           Umbra       38            2011.1274628
23 Mar 2023 14:01:53.129    23 Mar 2023 14:35:24.204      2011.0745707    Earth           Umbra       39            2011.0745707
23 Mar 2023 15:38:51.217    23 Mar 2023 16:12:22.230      2011.0131398    Earth           Umbra       40            2011.0131398
23 Mar 2023 17:15:49.346    23 Mar 2023 17:49:20.281      2010.9350727    Earth           Umbra       41            2010.9350727
23 Mar 2023 18:52:47.521    23 Mar 2023 19:26:18.375      2010.8539904    Earth           Umbra       42            2010.8539904
23 Mar 2023 20:29:45.741    23 Mar 2023 21:03:16.529      2010.7881114    Earth           Umbra       43            2010.7881114
23 Mar 2023 22:06:43.965    23 Mar 2023 22:40:14.697      2010.7317058    Earth           Umbra       44            2010.7317058
23 Mar 2023 23:43:42.149    24 Mar 2023 00:17:12.812      2010.6630540    Earth           Umbra       45            2010.6630540
24 Mar 2023 01:20:40.285    24 Mar 2023 01:54:10.864      2010.5796661    Earth           Umbra       46            2010.5796661
24 Mar 2023 02:57:38.380    24 Mar 2023 03:31:08.880      2010.5001481    Earth           Umbra       47            2010.5001481
24 Mar 2023 04:34:36.456    24 Mar 2023 05:08:06.886      2010.4300598    Earth           Umbra       48            2010.4300598
24 Mar 2023 06:11:34.573    24 Mar 2023 06:45:04.926      2010.3529938    Earth           Umbra       49            2010.3529938
24 Mar 2023 07:48:32.783    24 Mar 2023 08:22:03.043      2010.2598504    Earth           Umbra       50            2010.2598504
24 Mar 2023 09:25:31.041    24 Mar 2023 09:59:01.205      2010.1643652    Earth           Umbra       51            2010.1643652
24 Mar 2023 11:02:29.238    24 Mar 2023 11:35:59.323      2010.0848614    Earth           Umbra       52            2010.0848614
24 Mar 2023 12:39:27.339    24 Mar 2023 13:12:57.364      2010.0248185    Earth           Umbra       53            2010.0248185
24 Mar 2023 14:16:25.406    24 Mar 2023 14:49:55.378      2009.9716717    Earth           Umbra       54            2009.9716717
24 Mar 2023 15:53:23.500    24 Mar 2023 16:26:53.407      2009.9076624    Earth           Umbra       55            2009.9076624
24 Mar 2023 17:30:21.635    24 Mar 2023 18:03:51.463      2009.8277921    Earth           Umbra       56            2009.8277921
24 Mar 2023 19:07:19.818    24 Mar 2023 19:40:49.567      2009.7482314    Earth           Umbra       57            2009.7482314
24 Mar 2023 20:44:18.042    24 Mar 2023 21:17:47.727      2009.6849110    Earth           Umbra       58            2009.6849110
24 Mar 2023 22:21:16.263    24 Mar 2023 22:54:45.891      2009.6279249    Earth           Umbra       59            2009.6279249
24 Mar 2023 23:58:14.440    25 Mar 2023 00:31:43.996      2009.5563825    Earth           Umbra       60            2009.5563825
25 Mar 2023 01:35:12.569    25 Mar 2023 02:08:42.041      2009.4722698    Earth           Umbra       61            2009.4722698
25 Mar 2023 03:12:10.660    25 Mar 2023 03:45:40.054      2009.3945469    Earth           Umbra       62            2009.3945469
25 Mar 2023 04:49:08.737    25 Mar 2023 05:22:38.062      2009.3247396    Earth           Umbra       63            2009.3247396
25 Mar 2023 06:26:06.866    25 Mar 2023 06:59:36.112      2009.2452961    Earth           Umbra       64            2009.2452961
25 Mar 2023 08:03:05.090    25 Mar 2023 08:36:34.240      2009.1505452    Earth           Umbra       65            2009.1505452
25 Mar 2023 09:40:03.346    25 Mar 2023 10:13:32.402      2009.0565967    Earth           Umbra       66            2009.0565967
25 Mar 2023 11:17:01.528    25 Mar 2023 11:50:30.509      2008.9803191    Earth           Umbra       67            2008.9803191
25 Mar 2023 12:53:59.620    25 Mar 2023 13:27:28.542      2008.9224067    Earth           Umbra       68            2008.9224067
25 Mar 2023 14:30:57.688    25 Mar 2023 15:04:26.557      2008.8686090    Earth           Umbra       69            2008.8686090
25 Mar 2023 16:07:55.788    25 Mar 2023 16:41:24.590      2008.8019575    Earth           Umbra       70            2008.8019575
25 Mar 2023 17:44:53.930    25 Mar 2023 18:18:22.651      2008.7207818    Earth           Umbra       71            2008.7207818
25 Mar 2023 19:21:52.121    25 Mar 2023 19:55:20.764      2008.6432296    Earth           Umbra       72            2008.6432296
25 Mar 2023 20:58:50.348    25 Mar 2023 21:32:18.930      2008.5822515    Earth           Umbra       73            2008.5822515
25 Mar 2023 22:35:48.564    25 Mar 2023 23:09:17.088      2008.5241649    Earth           Umbra       74            2008.5241649
26 Mar 2023 00:12:46.734    26 Mar 2023 00:46:15.184      2008.4498455    Earth           Umbra       75            2008.4498455
26 Mar 2023 01:49:44.857    26 Mar 2023 02:23:13.223      2008.3655948    Earth           Umbra       76            2008.3655948
26 Mar 2023 03:26:42.944    26 Mar 2023 04:00:11.233      2008.2897761    Earth           Umbra       77            2008.2897761
26 Mar 2023 05:03:41.025    26 Mar 2023 05:37:09.244      2008.2198324    Earth           Umbra       78            2008.2198324
26 Mar 2023 06:40:39.167    26 Mar 2023 07:14:07.305      2008.1379162    Earth           Umbra       79            2008.1379162
26 Mar 2023 08:17:37.403    26 Mar 2023 08:51:05.445      2008.0420397    Earth           Umbra       80            2008.0420397
26 Mar 2023 09:54:35.654    26 Mar 2023 10:28:03.604      2007.9501054    Earth           Umbra       81            2007.9501054
26 Mar 2023 11:31:33.822    26 Mar 2023 12:05:01.699      2007.8771093    Earth           Umbra       82            2007.8771093
26 Mar 2023 13:08:31.905    26 Mar 2023 13:41:59.726      2007.8210130    Earth           Umbra       83            2007.8210130
26 Mar 2023 14:45:29.977    26 Mar 2023 15:18:57.743      2007.7661915    Earth           Umbra       84            2007.7661915
26 Mar 2023 16:22:28.082    26 Mar 2023 16:55:55.779      2007.6969255    Earth           Umbra       85            2007.6969255
26 Mar 2023 17:59:26.231    26 Mar 2023 18:32:53.846      2007.6149976    Earth           Umbra       86            2007.6149976
26 Mar 2023 19:36:24.430    26 Mar 2023 20:09:51.970      2007.5398663    Earth           Umbra       87            2007.5398663
26 Mar 2023 21:13:22.659    26 Mar 2023 21:46:50.140      2007.4809119    Earth           Umbra       88            2007.4809119
26 Mar 2023 22:50:20.870    26 Mar 2023 23:23:48.291      2007.4212549    Earth           Umbra       89            2007.4212549
27 Mar 2023 00:27:19.033    27 Mar 2023 01:00:46.378      2007.3443949    Earth           Umbra       90            2007.3443949
27 Mar 2023 02:04:17.151    27 Mar 2023 02:37:44.411      2007.2605814    Earth           Umbra       91            2007.2605814
27 Mar 2023 03:41:15.234    27 Mar 2023 04:14:42.420      2007.1866665    Earth           Umbra       92            2007.1866665
27 Mar 2023 05:18:13.319    27 Mar 2023 05:51:40.436      2007.1161646    Earth           Umbra       93            2007.1161646
27 Mar 2023 06:55:11.477    27 Mar 2023 07:28:38.509      2007.0317825    Earth           Umbra       94            2007.0317825
27 Mar 2023 08:32:09.723    27 Mar 2023 09:05:36.658      2006.9353069    Earth           Umbra       95            2006.9353069
27 Mar 2023 10:09:07.967    27 Mar 2023 10:42:34.813      2006.8458190    Earth           Umbra       96            2006.8458190
27 Mar 2023 11:46:06.120    27 Mar 2023 12:19:32.896      2006.7760909    Earth           Umbra       97            2006.7760909
27 Mar 2023 13:23:04.197    27 Mar 2023 13:56:30.918      2006.7214684    Earth           Umbra       98            2006.7214684
27 Mar 2023 15:00:02.272    27 Mar 2023 15:33:28.938      2006.6652872    Earth           Umbra       99            2006.6652872
27 Mar 2023 16:37:00.384    27 Mar 2023 17:10:26.978      2006.5935289    Earth           Umbra       100           2006.5935289
27 Mar 2023 18:13:58.541    27 Mar 2023 18:47:25.053      2006.5114414    Earth           Umbra       101           2006.5114414
27 Mar 2023 19:50:56.747    27 Mar 2023 20:24:23.186      2006.4390472    Earth           Umbra       102           2006.4390472
27 Mar 2023 21:27:54.977    27 Mar 2023 22:01:21.359      2006.3817099    Earth           Umbra       103           2006.3817099
27 Mar 2023 23:04:53.183    27 Mar 2023 23:38:19.503      2006.3200891    Earth           Umbra       104           2006.3200891
28 Mar 2023 00:41:51.339    28 Mar 2023 01:15:17.580      2006.2410398    Earth           Umbra       105           2006.2410398
28 Mar 2023 02:18:49.451    28 Mar 2023 02:52:15.609      2006.1581992    Earth           Umbra       106           2006.1581992
28 Mar 2023 03:55:47.531    28 Mar 2023 04:29:13.617      2006.0860797    Earth           Umbra       107           2006.0860797
28 Mar 2023 05:32:45.624    28 Mar 2023 06:06:11.638      2006.0146156    Earth           Umbra       108           2006.0146156
28 Mar 2023 07:09:43.796    28 Mar 2023 07:43:09.724      2005.9278792    Earth           Umbra       109           2005.9278792
28 Mar 2023 08:46:42.050    28 Mar 2023 09:20:07.881      2005.8313665    Earth           Umbra       110           2005.8313665
28 Mar 2023 10:23:40.285    28 Mar 2023 10:57:06.030      2005.7446965    Earth           Umbra       111           2005.7446965
28 Mar 2023 12:00:38.424    28 Mar 2023 12:34:04.102      2005.6781613    Earth           Umbra       112           2005.6781613
28 Mar 2023 13:37:36.497    28 Mar 2023 14:11:02.121      2005.6246465    Earth           Umbra       113           2005.6246465
28 Mar 2023 15:14:34.577    28 Mar 2023 15:48:00.144      2005.5668173    Earth           Umbra       114           2005.5668173
28 Mar 2023 16:51:32.696    28 Mar 2023 17:24:58.188      2005.4927818    Earth           Umbra       115           2005.4927818
28 Mar 2023 18:28:30.860    28 Mar 2023 19:01:56.271      2005.4111478    Earth           Umbra       116           2005.4111478
28 Mar 2023 20:05:29.073    28 Mar 2023 20:38:54.414      2005.3417001    Earth           Umbra       117           2005.3417001
28 Mar 2023 21:42:27.303    28 Mar 2023 22:15:52.588      2005.2855057    Earth           Umbra       118           2005.2855057
28 Mar 2023 23:19:25.502    28 Mar 2023 23:52:50.724      2005.2216221    Earth           Umbra       119           2005.2216221
29 Mar 2023 00:56:23.652    29 Mar 2023 01:29:48.793      2005.1408311    Earth           Umbra       120           2005.1408311
29 Mar 2023 02:33:21.758    29 Mar 2023 03:06:46.818      2005.0594410    Earth           Umbra       121           2005.0594410
29 Mar 2023 04:10:19.837    29 Mar 2023 04:43:44.826      2004.9889124    Earth           Umbra       122           2004.9889124
29 Mar 2023 05:47:17.938    29 Mar 2023 06:20:42.854      2004.9161221    Earth           Umbra       123           2004.9161221
29 Mar 2023 07:24:16.127    29 Mar 2023 07:57:40.954      2004.8272440    Earth           Umbra       124           2004.8272440
29 Mar 2023 09:01:14.386    29 Mar 2023 09:34:39.117      2004.7312641    Earth           Umbra       125           2004.7312641
29 Mar 2023 10:38:12.610    29 Mar 2023 11:11:37.258      2004.6477215    Earth           Umbra       126           2004.6477215
29 Mar 2023 12:15:10.735    29 Mar 2023 12:48:35.319      2004.5842437    Earth           Umbra       127           2004.5842437
29 Mar 2023 13:52:08.806    29 Mar 2023 14:25:33.337      2004.5314603    Earth           Umbra       128           2004.5314603
29 Mar 2023 15:29:06.891    29 Mar 2023 16:02:31.363      2004.4717503    Earth           Umbra       129           2004.4717503
29 Mar 2023 17:06:05.017    29 Mar 2023 17:39:29.413      2004.3957486    Earth           Umbra       130           2004.3957486
29 Mar 2023 18:43:03.190    29 Mar 2023 19:16:27.505      2004.3151755    Earth           Umbra       131           2004.3151755
29 Mar 2023 20:20:01.408    29 Mar 2023 20:53:25.657      2004.2487644    Earth           Umbra       132           2004.2487644
29 Mar 2023 21:56:59.637    29 Mar 2023 22:30:23.830      2004.1932003    Earth           Umbra       133           2004.1932003
29 Mar 2023 23:33:57.830    30 Mar 2023 00:07:21.957      2004.1268662    Earth           Umbra       134           2004.1268662
30 Mar 2023 01:10:55.973    30 Mar 2023 01:44:20.018      2004.0448585    Earth           Umbra       135           2004.0448585
30 Mar 2023 02:47:54.075    30 Mar 2023 03:21:18.040      2003.9653100    Earth           Umbra       136           2003.9653100
30 Mar 2023 04:24:52.153    30 Mar 2023 04:58:16.050      2003.8960899    Earth           Umbra       137           2003.8960899
30 Mar 2023 06:01:50.265    30 Mar 2023 06:35:14.087      2003.8216677    Earth           Umbra       138           2003.8216677
30 Mar 2023 07:38:48.469    30 Mar 2023 08:12:12.200      2003.7309549    Earth           Umbra       139           2003.7309549
30 Mar 2023 09:15:46.731    30 Mar 2023 09:49:10.367      2003.6360770    Earth           Umbra       140           2003.6360770
30 Mar 2023 10:52:44.943    30 Mar 2023 11:26:08.499      2003.5558999    Earth           Umbra       141           2003.5558999
30 Mar 2023 12:29:43.056    30 Mar 2023 13:03:06.551      2003.4952930    Earth           Umbra       142           2003.4952930
30 Mar 2023 14:06:41.126    30 Mar 2023 14:40:04.568      2003.4428579    Earth           Umbra       143           2003.4428579
30 Mar 2023 15:43:39.217    30 Mar 2023 16:17:02.598      2003.3811057    Earth           Umbra       144           2003.3811057
30 Mar 2023 17:20:37.350    30 Mar 2023 17:54:00.653      2003.3035353    Earth           Umbra       145           2003.3035353
30 Mar 2023 18:57:35.530    30 Mar 2023 19:30:58.755      2003.2246001    Earth           Umbra       146           2003.2246001
30 Mar 2023 20:34:33.754    30 Mar 2023 21:07:56.916      2003.1611987    Earth           Umbra       147           2003.1611987
30 Mar 2023 22:11:31.981    30 Mar 2023 22:44:55.087      2003.1057282    Earth           Umbra       148           2003.1057282
30 Mar 2023 23:48:30.167    31 Mar 2023 00:21:53.204      2003.0368824    Earth           Umbra       149           2003.0368824
31 Mar 2023 01:25:28.305    31 Mar 2023 01:58:51.259      2002.9542369    Earth           Umbra       150           2002.9542369
31 Mar 2023 03:02:26.402    31 Mar 2023 03:35:49.279      2002.8768274    Earth           Umbra       151           2002.8768274
31 Mar 2023 04:39:24.481    31 Mar 2023 05:12:47.290      2002.8085650    Earth           Umbra       152           2002.8085650
31 Mar 2023 06:16:22.605    31 Mar 2023 06:49:45.337      2002.7322833    Earth           Umbra       153           2002.7322833
31 Mar 2023 07:53:20.823    31 Mar 2023 08:26:43.463      2002.6401264    Earth           Umbra       154           2002.6401264
31 Mar 2023 09:30:19.086    31 Mar 2023 10:03:41.633      2002.5468984    Earth           Umbra       155           2002.5468984
31 Mar 2023 11:07:17.284    31 Mar 2023 11:40:39.754      2002.4702571    Earth           Umbra       156           2002.4702571
31 Mar 2023 12:44:15.386    31 Mar 2023 13:17:37.799      2002.4122843    Earth           Umbra       157           2002.4122843
31 Mar 2023 14:21:13.457    31 Mar 2023 14:54:35.817      2002.3598231    Earth           Umbra       158           2002.3598231
31 Mar 2023 15:58:11.555    31 Mar 2023 16:31:33.851      2002.2959449    Earth           Umbra       159           2002.2959449
31 Mar 2023 17:35:09.695    31 Mar 2023 18:08:31.912      2002.2172756    Earth           Umbra       160           2002.2172756
31 Mar 2023 19:12:07.884    31 Mar 2023 19:45:30.024      2002.1405123    Earth           Umbra       161           2002.1405123
31 Mar 2023 20:49:06.112    31 Mar 2023 21:22:28.192      2002.0799718    Earth           Umbra       162           2002.0799718
31 Mar 2023 22:26:04.336    31 Mar 2023 22:59:26.360      2002.0240757    Earth           Umbra       163           2002.0240757
01 Apr 2023 00:03:02.515    01 Apr 2023 00:36:24.468      2001.9527770    Earth           Umbra       164           2001.9527770
01 Apr 2023 01:40:00.647    01 Apr 2023 02:13:22.517      2001.8701019    Earth           Umbra       165           2001.8701019
01 Apr 2023 03:16:58.740    01 Apr 2023 03:50:20.535      2001.7950181    Earth           Umbra       166           2001.7950181
01 Apr 2023 04:53:56.822    01 Apr 2023 05:27:18.549      2001.7273196    Earth           Umbra       167           2001.7273196
01 Apr 2023 06:30:54.959    01 Apr 2023 07:04:16.608      2001.6490422    Earth           Umbra       168           2001.6490422
01 Apr 2023 08:07:53.191    01 Apr 2023 08:41:14.747      2001.5559038    Earth           Umbra       169           2001.5559038
01 Apr 2023 09:44:51.452    01 Apr 2023 10:18:12.917      2001.4648373    Earth           Umbra       170           2001.4648373
01 Apr 2023 11:21:49.635    01 Apr 2023 11:55:11.027      2001.3918287    Earth           Umbra       171           2001.3918287
01 Apr 2023 12:58:47.729    01 Apr 2023 13:32:09.065      2001.3362158    Earth           Umbra       172           2001.3362158
01 Apr 2023 14:35:45.802    01 Apr 2023 15:09:07.085      2001.2833711    Earth           Umbra       173           2001.2833711
01 Apr 2023 16:12:43.906    01 Apr 2023 16:46:05.124      2001.2173668    Earth           Umbra       174           2001.2173668
01 Apr 2023 17:49:42.054    01 Apr 2023 18:23:03.192      2001.1381323    Earth           Umbra       175           2001.1381323
01 Apr 2023 19:26:40.251    01 Apr 2023 20:00:01.315      2001.0640028    Earth           Umbra       176           2001.0640028
01 Apr 2023 21:03:38.483    01 Apr 2023 21:36:59.489      2001.0060690    Earth           Umbra       177           2001.0060690
01 Apr 2023 22:40:36.702    01 Apr 2023 23:13:57.652      2000.9492588    Earth           Umbra       178           2000.9492588
02 Apr 2023 00:17:34.875    02 Apr 2023 00:50:55.751      2000.8756963    Earth           Umbra       179           2000.8756963
02 Apr 2023 01:54:33.001    02 Apr 2023 02:27:53.795      2000.7935971    Earth           Umbra       180           2000.7935971
02 Apr 2023 03:31:31.091    02 Apr 2023 04:04:51.812      2000.7209157    Earth           Umbra       181           2000.7209157
02 Apr 2023 05:08:29.177    02 Apr 2023 05:41:49.830      2000.6533718    Earth           Umbra       182           2000.6533718
02 Apr 2023 06:45:27.328    02 Apr 2023 07:18:47.901      2000.5730558    Earth           Umbra       183           2000.5730558
02 Apr 2023 08:22:25.573    02 Apr 2023 08:55:46.052      2000.4794534    Earth           Umbra       184           2000.4794534
02 Apr 2023 09:59:23.829    02 Apr 2023 10:32:44.220      2000.3910172    Earth           Umbra       185           2000.3910172
02 Apr 2023 11:36:21.998    02 Apr 2023 12:09:42.319      2000.3216700    Earth           Umbra       186           2000.3216700
02 Apr 2023 13:13:20.084    02 Apr 2023 13:46:40.352      2000.2681078    Earth           Umbra       187           2000.2681078
02 Apr 2023 14:50:18.160    02 Apr 2023 15:23:38.375      2000.2145496    Earth           Umbra       188           2000.2145496
02 Apr 2023 16:27:16.272    02 Apr 2023 17:00:36.418      2000.1465103    Earth           Umbra       189           2000.1465103
02 Apr 2023 18:04:14.427    02 Apr 2023 18:37:34.494      2000.0672907    Earth           Umbra       190           2000.0672907
02 Apr 2023 19:41:12.632    02 Apr 2023 20:14:32.628      1999.9961676    Earth           Umbra       191           1999.9961676
02 Apr 2023 21:18:10.866    02 Apr 2023 21:51:30.807      1999.9404875    Earth           Umbra       192           1999.9404875
02 Apr 2023 22:55:09.081    02 Apr 2023 23:28:28.964      1999.8823383    Earth           Umbra       193           1999.8823383
03 Apr 2023 00:32:07.248    03 Apr 2023 01:05:27.055      1999.8068214    Earth           Umbra       194           1999.8068214
03 Apr 2023 02:09:05.368    03 Apr 2023 02:42:25.094      1999.7258783    Earth           Umbra       195           1999.7258783
03 Apr 2023 03:46:03.455    03 Apr 2023 04:19:23.111      1999.6555633    Earth           Umbra       196           1999.6555633
03 Apr 2023 05:23:01.547    03 Apr 2023 05:56:21.135      1999.5877633    Earth           Umbra       197           1999.5877633
03 Apr 2023 06:59:59.714    03 Apr 2023 07:33:19.220      1999.5054742    Earth           Umbra       198           1999.5054742
03 Apr 2023 08:36:57.969    03 Apr 2023 09:10:17.381      1999.4119611    Earth           Umbra       199           1999.4119611
03 Apr 2023 10:13:56.218    03 Apr 2023 10:47:15.544      1999.3265657    Earth           Umbra       200           1999.3265657
03 Apr 2023 11:50:54.372    03 Apr 2023 12:24:13.633      1999.2608458    Earth           Umbra       201           1999.2608458
03 Apr 2023 13:27:52.453    03 Apr 2023 14:01:11.662      1999.2089988    Earth           Umbra       202           1999.2089988
03 Apr 2023 15:04:50.534    03 Apr 2023 15:38:09.689      1999.1544395    Earth           Umbra       203           1999.1544395
03 Apr 2023 16:41:48.653    03 Apr 2023 17:15:07.737      1999.0845448    Earth           Umbra       204           1999.0845448
03 Apr 2023 18:18:46.816    03 Apr 2023 18:52:05.822      1999.0059475    Earth           Umbra       205           1999.0059475
03 Apr 2023 19:55:45.029    03 Apr 2023 20:29:03.967      1998.9380993    Earth           Umbra       206           1998.9380993
03 Apr 2023 21:32:43.264    03 Apr 2023 22:06:02.149      1998.8842413    Earth           Umbra       207           1998.8842413
03 Apr 2023 23:09:41.474    03 Apr 2023 23:43:00.298      1998.8244153    Earth           Umbra       208           1998.8244153
04 Apr 2023 00:46:39.634    04 Apr 2023 01:19:58.381      1998.7473575    Earth           Umbra       209           1998.7473575
04 Apr 2023 02:23:37.750    04 Apr 2023 02:56:56.418      1998.6681007    Earth           Umbra       210           1998.6681007
04 Apr 2023 04:00:35.834    04 Apr 2023 04:33:54.434      1998.6000118    Earth           Umbra       211           1998.6000118
04 Apr 2023 05:37:33.934    04 Apr 2023 06:10:52.466      1998.5315749    Earth           Umbra       212           1998.5315749
04 Apr 2023 07:14:32.118    04 Apr 2023 07:47:50.565      1998.4474773    Earth           Umbra       213           1998.4474773
04 Apr 2023 08:51:30.380    04 Apr 2023 09:24:48.735      1998.3546283    Earth           Umbra       214           1998.3546283
04 Apr 2023 10:28:28.619    04 Apr 2023 11:01:46.892      1998.2726203    Earth           Umbra       215           1998.2726203
04 Apr 2023 12:05:26.760    04 Apr 2023 12:38:44.971      1998.2104328    Earth           Umbra       216           1998.2104328
04 Apr 2023 13:42:24.838    04 Apr 2023 14:15:42.998      1998.1599493    Earth           Umbra       217           1998.1599493
04 Apr 2023 15:19:22.925    04 Apr 2023 15:52:41.029      1998.1041510    Earth           Umbra       218           1998.1041510
04 Apr 2023 16:56:21.050    04 Apr 2023 17:29:39.083      1998.0326756    Earth           Umbra       219           1998.0326756
04 Apr 2023 18:33:19.222    04 Apr 2023 19:06:37.177      1997.9553116    Earth           Umbra       220           1997.9553116
04 Apr 2023 20:10:17.441    04 Apr 2023 20:43:35.332      1997.8908924    Earth           Umbra       221           1997.8908924
04 Apr 2023 21:47:15.677    04 Apr 2023 22:20:33.516      1997.8383712    Earth           Umbra       222           1997.8383712
04 Apr 2023 23:24:13.881    04 Apr 2023 23:57:31.658      1997.7766325    Earth           Umbra       223           1997.7766325
05 Apr 2023 01:01:12.035    05 Apr 2023 01:34:29.734      1997.6985353    Earth           Umbra       224           1997.6985353
05 Apr 2023 02:38:10.146    05 Apr 2023 03:11:27.767      1997.6214206    Earth           Umbra       225           1997.6214206
05 Apr 2023 04:15:08.230    05 Apr 2023 04:48:25.785      1997.5553258    Earth           Umbra       226           1997.5553258
05 Apr 2023 05:52:06.339    05 Apr 2023 06:25:23.825      1997.4859167    Earth           Umbra       227           1997.4859167
05 Apr 2023 07:29:04.539    05 Apr 2023 08:02:21.939      1997.4002739    Earth           Umbra       228           1997.4002739
05 Apr 2023 09:06:02.807    05 Apr 2023 09:39:20.116      1997.3086671    Earth           Umbra       229           1997.3086671
05 Apr 2023 10:43:01.035    05 Apr 2023 11:16:18.266      1997.2303256    Earth           Umbra       230           1997.2303256
05 Apr 2023 12:19:59.163    05 Apr 2023 12:53:16.335      1997.1715164    Earth           Umbra       231           1997.1715164
05 Apr 2023 13:56:57.239    05 Apr 2023 14:30:14.362      1997.1220385    Earth           Umbra       232           1997.1220385
05 Apr 2023 15:33:55.332    05 Apr 2023 16:07:12.397      1997.0648241    Earth           Umbra       233           1997.0648241
05 Apr 2023 17:10:53.465    05 Apr 2023 17:44:10.457      1996.9921266    Earth           Umbra       234           1996.9921266
05 Apr 2023 18:47:51.645    05 Apr 2023 19:21:08.562      1996.9165883    Earth           Umbra       235           1996.9165883
05 Apr 2023 20:24:49.871    05 Apr 2023 20:58:06.727      1996.8556373    Earth           Umbra       236           1996.8556373
05 Apr 2023 22:01:48.106    05 Apr 2023 22:35:04.910      1996.8039342    Earth           Umbra       237           1996.8039342
05 Apr 2023 23:38:46.304    06 Apr 2023 00:12:03.044      1996.7401635    Earth           Umbra       238           1996.7401635
06 Apr 2023 01:15:44.452    06 Apr 2023 01:49:01.114      1996.6615966    Earth           Umbra       239           1996.6615966
06 Apr 2023 02:52:42.559    06 Apr 2023 03:25:59.145      1996.5869859    Earth           Umbra       240           1996.5869859
06 Apr 2023 04:29:40.643    06 Apr 2023 05:02:57.165      1996.5225776    Earth           Umbra       241           1996.5225776
06 Apr 2023 06:06:38.764    06 Apr 2023 06:39:55.215      1996.4519301    Earth           Umbra       242           1996.4519301
06 Apr 2023 07:43:36.979    06 Apr 2023 08:16:53.344      1996.3650926    Earth           Umbra       243           1996.3650926
06 Apr 2023 09:20:35.250    06 Apr 2023 09:53:51.525      1996.2752941    Earth           Umbra       244           1996.2752941
06 Apr 2023 10:57:33.466    06 Apr 2023 11:30:49.666      1996.2008257    Earth           Umbra       245           1996.2008257
06 Apr 2023 12:34:31.582    06 Apr 2023 13:07:47.728      1996.1451940    Earth           Umbra       246           1996.1451940
06 Apr 2023 14:11:29.659    06 Apr 2023 14:44:45.755      1996.0963648    Earth           Umbra       247           1996.0963648
06 Apr 2023 15:48:27.758    06 Apr 2023 16:21:43.795      1996.0376282    Earth           Umbra       248           1996.0376282
06 Apr 2023 17:25:25.898    06 Apr 2023 17:58:41.862      1995.9641449    Earth           Umbra       249           1995.9641449
06 Apr 2023 19:02:24.087    06 Apr 2023 19:35:39.978      1995.8909878    Earth           Umbra       250           1995.8909878
06 Apr 2023 20:39:22.319    06 Apr 2023 21:12:38.152      1995.8334202    Earth           Umbra       251           1995.8334202
06 Apr 2023 22:16:20.552    06 Apr 2023 22:49:36.334      1995.7820132    Earth           Umbra       252           1995.7820132
06 Apr 2023 23:53:18.743    07 Apr 2023 00:26:34.460      1995.7162179    Earth           Umbra       253           1995.7162179
07 Apr 2023 01:30:16.886    07 Apr 2023 02:03:32.524      1995.6377875    Earth           Umbra       254           1995.6377875
07 Apr 2023 03:07:14.988    07 Apr 2023 03:40:30.554      1995.5659421    Earth           Umbra       255           1995.5659421
07 Apr 2023 04:44:13.074    07 Apr 2023 05:17:28.577      1995.5028522    Earth           Umbra       256           1995.5028522
07 Apr 2023 06:21:11.208    07 Apr 2023 06:54:26.639      1995.4307802    Earth           Umbra       257           1995.4307802
07 Apr 2023 07:58:09.439    07 Apr 2023 08:31:24.782      1995.3431788    Earth           Umbra       258           1995.3431788
07 Apr 2023 09:35:07.710    07 Apr 2023 10:08:22.965      1995.2557208    Earth           Umbra       259           1995.2557208
07 Apr 2023 11:12:05.912    07 Apr 2023 11:45:21.097      1995.1852634    Earth           Umbra       260           1995.1852634
07 Apr 2023 12:49:04.019    07 Apr 2023 13:22:19.151      1995.1325656    Earth           Umbra       261           1995.1325656
07 Apr 2023 14:26:02.097    07 Apr 2023 14:59:17.181      1995.0840372    Earth           Umbra       262           1995.0840372
07 Apr 2023 16:03:00.202    07 Apr 2023 16:36:15.226      1995.0237529    Earth           Umbra       263           1995.0237529
07 Apr 2023 17:39:58.350    07 Apr 2023 18:13:13.300      1994.9499870    Earth           Umbra       264           1994.9499870
07 Apr 2023 19:16:56.548    07 Apr 2023 19:50:11.428      1994.8797028    Earth           Umbra       265           1994.8797028
07 Apr 2023 20:53:54.785    07 Apr 2023 21:27:09.610      1994.8253205    Earth           Umbra       266           1994.8253205
07 Apr 2023 22:30:53.015    07 Apr 2023 23:04:07.789      1994.7737108    Earth           Umbra       267           1994.7737108
08 Apr 2023 00:07:51.200    08 Apr 2023 00:41:05.906      1994.7060230    Earth           Umbra       268           1994.7060230
08 Apr 2023 01:44:49.337    08 Apr 2023 02:18:03.966      1994.6283517    Earth           Umbra       269           1994.6283517
08 Apr 2023 03:21:47.436    08 Apr 2023 03:55:01.995      1994.5594163    Earth           Umbra       270           1994.5594163
08 Apr 2023 04:58:45.525    08 Apr 2023 05:32:00.023      1994.4972460    Earth           Umbra       271           1994.4972460
08 Apr 2023 06:35:43.674    08 Apr 2023 07:08:58.098      1994.4236577    Earth           Umbra       272           1994.4236577
08 Apr 2023 08:12:41.918    08 Apr 2023 08:45:56.254      1994.3357810    Earth           Umbra       273           1994.3357810
08 Apr 2023 09:49:40.187    08 Apr 2023 10:22:54.438      1994.2511569    Earth           Umbra       274           1994.2511569
08 Apr 2023 11:26:38.375    08 Apr 2023 11:59:52.560      1994.1847773    Earth           Umbra       275           1994.1847773
08 Apr 2023 13:03:36.474    08 Apr 2023 13:36:50.608      1994.1347298    Earth           Umbra       276           1994.1347298
08 Apr 2023 14:40:34.555    08 Apr 2023 15:13:48.641      1994.0861812    Earth           Umbra       277           1994.0861812
08 Apr 2023 16:17:32.667    08 Apr 2023 16:50:46.692      1994.0244045    Earth           Umbra       278           1994.0244045
08 Apr 2023 17:54:30.823    08 Apr 2023 18:27:44.774      1993.9509064    Earth           Umbra       279           1993.9509064
08 Apr 2023 19:31:29.030    08 Apr 2023 20:04:42.914      1993.8839070    Earth           Umbra       280           1993.8839070
08 Apr 2023 21:08:27.270    08 Apr 2023 21:41:41.103      1993.8324095    Earth           Umbra       281           1993.8324095
08 Apr 2023 22:45:25.497    08 Apr 2023 23:18:39.277      1993.7801448    Earth           Umbra       282           1993.7801448
09 Apr 2023 00:22:23.676    09 Apr 2023 00:55:37.386      1993.7108212    Earth           Umbra       283           1993.7108212
09 Apr 2023 01:59:21.808    09 Apr 2023 02:32:35.442      1993.6345172    Earth           Umbra       284           1993.6345172
09 Apr 2023 03:36:19.903    09 Apr 2023 04:09:33.472      1993.5685226    Earth           Umbra       285           1993.5685226
09 Apr 2023 05:13:17.998    09 Apr 2023 05:46:31.505      1993.5068596    Earth           Umbra       286           1993.5068596
09 Apr 2023 06:50:16.162    09 Apr 2023 07:23:29.594      1993.4317607    Earth           Umbra       287           1993.4317607
09 Apr 2023 08:27:14.418    09 Apr 2023 09:00:27.763      1993.3441436    Earth           Umbra       288           1993.3441436
09 Apr 2023 10:04:12.682    09 Apr 2023 10:37:25.945      1993.2627919    Earth           Umbra       289           1993.2627919
09 Apr 2023 11:41:10.856    09 Apr 2023 12:14:24.056      1993.2004868    Earth           Umbra       290           1993.2004868
09 Apr 2023 13:18:08.948    09 Apr 2023 13:51:22.101      1993.1527810    Earth           Umbra       291           1993.1527810
09 Apr 2023 14:55:07.033    09 Apr 2023 15:28:20.137      1993.1039235    Earth           Umbra       292           1993.1039235
09 Apr 2023 16:32:05.153    09 Apr 2023 17:05:18.194      1993.0407955    Earth           Umbra       293           1993.0407955
09 Apr 2023 18:09:03.318    09 Apr 2023 18:42:16.286      1992.9681505    Earth           Umbra       294           1992.9681505
09 Apr 2023 19:46:01.533    09 Apr 2023 20:19:14.437      1992.9047516    Earth           Umbra       295           1992.9047516
09 Apr 2023 21:22:59.776    09 Apr 2023 21:56:12.631      1992.8557460    Earth           Umbra       296           1992.8557460
09 Apr 2023 22:59:57.998    09 Apr 2023 23:33:10.800      1992.8024491    Earth           Umbra       297           1992.8024491
10 Apr 2023 00:36:56.170    10 Apr 2023 01:10:08.902      1992.7318547    Earth           Umbra       298           1992.7318547
10 Apr 2023 02:13:54.298    10 Apr 2023 02:47:06.955      1992.6574828    Earth           Umbra       299           1992.6574828
10 Apr 2023 03:50:52.391    10 Apr 2023 04:24:04.985      1992.5943492    Earth           Umbra       300           1992.5943492
10 Apr 2023 05:27:50.493    10 Apr 2023 06:01:03.026      1992.5327937    Earth           Umbra       301           1992.5327937
10 Apr 2023 07:04:48.673    10 Apr 2023 07:38:01.130      1992.4562907    Earth           Umbra       302           1992.4562907
10 Apr 2023 08:41:46.940    10 Apr 2023 09:14:59.309      1992.3694956    Earth           Umbra       303           1992.3694956
10 Apr 2023 10:18:45.196    10 Apr 2023 10:51:57.488      1992.2917928    Earth           Umbra       304           1992.2917928
10 Apr 2023 11:55:43.356    10 Apr 2023 12:28:55.589      1992.2334960    Earth           Umbra       305           1992.2334960
10 Apr 2023 13:32:41.444    10 Apr 2023 14:05:53.632      1992.1877999    Earth           Umbra       306           1992.1877999
10 Apr 2023 15:09:39.534    10 Apr 2023 15:42:51.672      1992.1383833    Earth           Umbra       307           1992.1383833
10 Apr 2023 16:46:37.662    10 Apr 2023 17:19:49.736      1992.0741344    Earth           Umbra       308           1992.0741344
10 Apr 2023 18:23:35.835    10 Apr 2023 18:56:47.838      1992.0029387    Earth           Umbra       309           1992.0029387
10 Apr 2023 20:00:34.058    10 Apr 2023 20:33:46.001      1991.9433421    Earth           Umbra       310           1991.9433421
10 Apr 2023 21:37:32.302    10 Apr 2023 22:10:44.199      1991.8963712    Earth           Umbra       311           1991.8963712
10 Apr 2023 23:14:30.519    10 Apr 2023 23:47:42.361      1991.8417547    Earth           Umbra       312           1991.8417547
11 Apr 2023 00:51:28.686    11 Apr 2023 01:24:40.456      1991.7703526    Earth           Umbra       313           1991.7703526
11 Apr 2023 02:28:26.808    11 Apr 2023 03:01:38.507      1991.6984132    Earth           Umbra       314           1991.6984132
11 Apr 2023 04:05:24.901    11 Apr 2023 04:38:36.539      1991.6379560    Earth           Umbra       315           1991.6379560
11 Apr 2023 05:42:23.011    11 Apr 2023 06:15:34.587      1991.5761425    Earth           Umbra       316           1991.5761425
11 Apr 2023 07:19:21.209    11 Apr 2023 07:52:32.707      1991.4984378    Earth           Umbra       317           1991.4984378
11 Apr 2023 08:56:19.483    11 Apr 2023 09:29:30.896      1991.4130361    Earth           Umbra       318           1991.4130361
11 Apr 2023 10:33:17.730    11 Apr 2023 11:06:29.069      1991.3392897    Earth           Umbra       319           1991.3392897
11 Apr 2023 12:10:15.876    11 Apr 2023 12:43:27.161      1991.2848741    Earth           Umbra       320           1991.2848741
11 Apr 2023 13:47:13.962    11 Apr 2023 14:20:25.203      1991.2408417    Earth           Umbra       321           1991.2408417
11 Apr 2023 15:24:12.058    11 Apr 2023 15:57:23.249      1991.1906726    Earth           Umbra       322           1991.1906726
11 Apr 2023 17:01:10.193    11 Apr 2023 17:34:21.319      1991.1256118    Earth           Umbra       323           1991.1256118
11 Apr 2023 18:38:08.375    11 Apr 2023 19:11:19.432      1991.0564508    Earth           Umbra       324           1991.0564508
11 Apr 2023 20:15:06.606    11 Apr 2023 20:48:17.606      1991.0007436    Earth           Umbra       325           1991.0007436
11 Apr 2023 21:52:04.851    11 Apr 2023 22:25:15.806      1990.9553012    Earth           Umbra       326           1990.9553012
11 Apr 2023 23:29:03.062    12 Apr 2023 00:02:13.961      1990.8991867    Earth           Umbra       327           1990.8991867
12 Apr 2023 01:06:01.223    12 Apr 2023 01:39:12.051      1990.8275132    Earth           Umbra       328           1990.8275132
12 Apr 2023 02:42:59.341    12 Apr 2023 03:16:10.100      1990.7584207    Earth           Umbra       329           1990.7584207
12 Apr 2023 04:19:57.433    12 Apr 2023 04:53:08.134      1990.7003662    Earth           Umbra       330           1990.7003662
12 Apr 2023 05:56:55.555    12 Apr 2023 06:30:06.193      1990.6379778    Earth           Umbra       331           1990.6379778
12 Apr 2023 07:33:53.769    12 Apr 2023 08:07:04.328      1990.5593694    Earth           Umbra       332           1990.5593694
12 Apr 2023 09:10:52.049    12 Apr 2023 09:44:02.524      1990.4759215    Earth           Umbra       333           1990.4759215
12 Apr 2023 10:47:50.284    12 Apr 2023 11:21:00.690      1990.4063625    Earth           Umbra       334           1990.4063625
12 Apr 2023 12:24:48.419    12 Apr 2023 12:57:58.774      1990.3556502    Earth           Umbra       335           1990.3556502
12 Apr 2023 14:01:46.504    12 Apr 2023 14:34:56.817      1990.3129346    Earth           Umbra       336           1990.3129346
12 Apr 2023 15:38:44.606    12 Apr 2023 16:11:54.868      1990.2618775    Earth           Umbra       337           1990.2618775
12 Apr 2023 17:15:42.749    12 Apr 2023 17:48:52.946      1990.1963905    Earth           Umbra       338           1990.1963905
12 Apr 2023 18:52:40.940    12 Apr 2023 19:25:51.070      1990.1298153    Earth           Umbra       339           1990.1298153
12 Apr 2023 20:29:39.178    12 Apr 2023 21:02:49.256      1990.0779589    Earth           Umbra       340           1990.0779589
12 Apr 2023 22:06:37.422    12 Apr 2023 22:39:47.455      1990.0335205    Earth           Umbra       341           1990.0335205
12 Apr 2023 23:43:35.628    13 Apr 2023 00:16:45.603      1989.9758482    Earth           Umbra       342           1989.9758482
13 Apr 2023 01:20:33.783    13 Apr 2023 01:53:43.688      1989.9044897    Earth           Umbra       343           1989.9044897
13 Apr 2023 02:57:31.898    13 Apr 2023 03:30:41.736      1989.8385554    Earth           Umbra       344           1989.8385554
13 Apr 2023 04:34:29.991    13 Apr 2023 05:07:39.773      1989.7825581    Earth           Umbra       345           1989.7825581
13 Apr 2023 06:11:28.125    13 Apr 2023 06:44:37.844      1989.7193516    Earth           Umbra       346           1989.7193516
13 Apr 2023 07:48:26.355    13 Apr 2023 08:21:35.995      1989.6402120    Earth           Umbra       347           1989.6402120
13 Apr 2023 09:25:24.637    13 Apr 2023 09:58:34.197      1989.5592532    Earth           Umbra       348           1989.5592532
13 Apr 2023 11:02:22.860    13 Apr 2023 11:35:32.354      1989.4940419    Earth           Umbra       349           1989.4940419
13 Apr 2023 12:39:20.984    13 Apr 2023 13:12:30.431      1989.4468035    Earth           Umbra       350           1989.4468035
13 Apr 2023 14:16:19.070    13 Apr 2023 14:49:28.475      1989.4050588    Earth           Umbra       351           1989.4050588
13 Apr 2023 15:53:17.180    13 Apr 2023 16:26:26.533      1989.3530477    Earth           Umbra       352           1989.3530477
13 Apr 2023 17:30:15.331    13 Apr 2023 18:03:24.618      1989.2875853    Earth           Umbra       353           1989.2875853
13 Apr 2023 19:07:13.531    13 Apr 2023 19:40:22.756      1989.2240939    Earth           Umbra       354           1989.2240939
13 Apr 2023 20:44:11.775    13 Apr 2023 21:17:20.951      1989.1759314    Earth           Umbra       355           1989.1759314
13 Apr 2023 22:21:10.017    13 Apr 2023 22:54:19.149      1989.1319786    Earth           Umbra       356           1989.1319786
13 Apr 2023 23:58:08.217    14 Apr 2023 00:31:17.290      1989.0728095    Earth           Umbra       357           1989.0728095
14 Apr 2023 01:35:06.368    14 Apr 2023 02:08:15.370      1989.0023741    Earth           Umbra       358           1989.0023741
14 Apr 2023 03:12:04.478    14 Apr 2023 03:45:13.418      1988.9397940    Earth           Umbra       359           1988.9397940
14 Apr 2023 04:49:02.575    14 Apr 2023 05:22:11.460      1988.8854570    Earth           Umbra       360           1988.8854570
14 Apr 2023 06:26:00.723    14 Apr 2023 06:59:09.544      1988.8212744    Earth           Umbra       361           1988.8212744
14 Apr 2023 08:02:58.968    14 Apr 2023 08:36:07.710      1988.7420390    Earth           Umbra       362           1988.7420390
14 Apr 2023 09:39:57.250    14 Apr 2023 10:13:05.915      1988.6640647    Earth           Umbra       363           1988.6640647
14 Apr 2023 11:16:55.460    14 Apr 2023 11:50:04.063      1988.6032863    Earth           Umbra       364           1988.6032863
14 Apr 2023 12:53:53.575    14 Apr 2023 13:27:02.134      1988.5592505    Earth           Umbra       365           1988.5592505
14 Apr 2023 14:30:51.663    14 Apr 2023 15:04:00.182      1988.5181467    Earth           Umbra       366           1988.5181467
14 Apr 2023 16:07:49.780    14 Apr 2023 16:40:58.245      1988.4651892    Earth           Umbra       367           1988.4651892
14 Apr 2023 17:44:47.940    14 Apr 2023 18:17:56.340      1988.4002513    Earth           Umbra       368           1988.4002513
14 Apr 2023 19:21:46.150    14 Apr 2023 19:54:54.490      1988.3402643    Earth           Umbra       369           1988.3402643
14 Apr 2023 20:58:44.398    14 Apr 2023 21:31:52.693      1988.2955267    Earth           Umbra       370           1988.2955267
14 Apr 2023 22:35:42.638    14 Apr 2023 23:08:50.889      1988.2515735    Earth           Umbra       371           1988.2515735
15 Apr 2023 00:12:40.832    15 Apr 2023 00:45:49.023      1988.1910915    Earth           Umbra       372           1988.1910915
15 Apr 2023 01:49:38.978    15 Apr 2023 02:22:47.100      1988.1221825    Earth           Umbra       373           1988.1221825
15 Apr 2023 03:26:37.085    15 Apr 2023 03:59:45.148      1988.0630351    Earth           Umbra       374           1988.0630351
15 Apr 2023 05:03:35.186    15 Apr 2023 05:36:43.196      1988.0099305    Earth           Umbra       375           1988.0099305
15 Apr 2023 06:40:33.350    15 Apr 2023 07:13:41.294      1987.9447003    Earth           Umbra       376           1987.9447003
15 Apr 2023 08:17:31.609    15 Apr 2023 08:50:39.475      1987.8658582    Earth           Umbra       377           1987.8658582
15 Apr 2023 09:54:29.889    15 Apr 2023 10:27:37.680      1987.7913096    Earth           Umbra       378           1987.7913096
15 Apr 2023 11:31:28.085    15 Apr 2023 12:04:35.820      1987.7349757    Earth           Umbra       379           1987.7349757
15 Apr 2023 13:08:26.192    15 Apr 2023 13:41:33.886      1987.6938401    Earth           Umbra       380           1987.6938401
15 Apr 2023 14:45:24.285    15 Apr 2023 15:18:31.938      1987.6530686    Earth           Umbra       381           1987.6530686
15 Apr 2023 16:22:22.409    15 Apr 2023 16:55:30.008      1987.5992492    Earth           Umbra       382           1987.5992492
15 Apr 2023 17:59:20.577    15 Apr 2023 18:32:28.113      1987.5353703    Earth           Umbra       383           1987.5353703
15 Apr 2023 19:36:18.796    15 Apr 2023 20:09:26.276      1987.4792165    Earth           Umbra       384           1987.4792165
15 Apr 2023 21:13:17.049    15 Apr 2023 21:46:24.486      1987.4375378    Earth           Umbra       385           1987.4375378
15 Apr 2023 22:50:15.285    15 Apr 2023 23:23:22.678      1987.3931553    Earth           Umbra       386           1987.3931553
16 Apr 2023 00:27:13.473    16 Apr 2023 01:00:20.805      1987.3316523    Earth           Umbra       387           1987.3316523
16 Apr 2023 02:04:11.615    16 Apr 2023 02:37:18.880      1987.2648411    Earth           Umbra       388           1987.2648411
16 Apr 2023 03:41:09.720    16 Apr 2023 04:14:16.929      1987.2090840    Earth           Umbra       389           1987.2090840
16 Apr 2023 05:18:07.827    16 Apr 2023 05:51:14.984      1987.1567815    Earth           Umbra       390           1987.1567815
16 Apr 2023 06:55:06.007    16 Apr 2023 07:28:13.098      1987.0905282    Earth           Umbra       391           1987.0905282
16 Apr 2023 08:32:04.279    16 Apr 2023 09:05:11.292      1987.0125985    Earth           Umbra       392           1987.0125985
16 Apr 2023 10:09:02.553    16 Apr 2023 10:42:09.495      1986.9418574    Earth           Umbra       393           1986.9418574
16 Apr 2023 11:46:00.736    16 Apr 2023 12:19:07.625      1986.8899104    Earth           Umbra       394           1986.8899104
16 Apr 2023 13:22:58.838    16 Apr 2023 13:56:05.689      1986.8513429    Earth           Umbra       395           1986.8513429
16 Apr 2023 14:59:56.935    16 Apr 2023 15:33:03.746      1986.8106276    Earth           Umbra       396           1986.8106276
16 Apr 2023 16:36:55.067    16 Apr 2023 17:10:01.823      1986.7561101    Earth           Umbra       397           1986.7561101
16 Apr 2023 18:13:53.245    16 Apr 2023 18:46:59.939      1986.6938393    Earth           Umbra       398           1986.6938393
16 Apr 2023 19:50:51.473    16 Apr 2023 20:23:58.115      1986.6417408    Earth           Umbra       399           1986.6417408
16 Apr 2023 21:27:49.728    16 Apr 2023 22:00:56.331      1986.6026741    Earth           Umbra       400           1986.6026741
16 Apr 2023 23:04:47.961    16 Apr 2023 23:37:54.518      1986.5575099    Earth           Umbra       401           1986.5575099
17 Apr 2023 00:41:46.143    17 Apr 2023 01:14:52.639      1986.4953818    Earth           Umbra       402           1986.4953818
17 Apr 2023 02:18:44.280    17 Apr 2023 02:51:50.711      1986.4311826    Earth           Umbra       403           1986.4311826
17 Apr 2023 03:55:42.384    17 Apr 2023 04:28:48.763      1986.3786601    Earth           Umbra       404           1986.3786601
17 Apr 2023 05:32:40.500    17 Apr 2023 06:05:46.826      1986.3267487    Earth           Umbra       405           1986.3267487
17 Apr 2023 07:09:38.697    17 Apr 2023 07:42:44.957      1986.2595908    Earth           Umbra       406           1986.2595908
17 Apr 2023 08:46:36.979    17 Apr 2023 09:19:43.162      1986.1831041    Earth           Umbra       407           1986.1831041
17 Apr 2023 10:23:35.246    17 Apr 2023 10:56:41.362      1986.1164796    Earth           Umbra       408           1986.1164796
17 Apr 2023 12:00:33.415    17 Apr 2023 12:33:39.484      1986.0687983    Earth           Umbra       409           1986.0687983
17 Apr 2023 13:37:31.514    17 Apr 2023 14:10:37.546      1986.0324490    Earth           Umbra       410           1986.0324490
17 Apr 2023 15:14:29.617    17 Apr 2023 15:47:35.608      1985.9915602    Earth           Umbra       411           1985.9915602
17 Apr 2023 16:51:27.757    17 Apr 2023 17:24:33.694      1985.9365863    Earth           Umbra       412           1985.9365863
17 Apr 2023 18:28:25.944    17 Apr 2023 19:01:31.821      1985.8764676    Earth           Umbra       413           1985.8764676
17 Apr 2023 20:05:24.181    17 Apr 2023 20:38:30.009      1985.8285283    Earth           Umbra       414           1985.8285283
17 Apr 2023 21:42:22.438    17 Apr 2023 22:15:28.230      1985.7915672    Earth           Umbra       415           1985.7915672
17 Apr 2023 23:19:20.666    17 Apr 2023 23:52:26.411      1985.7453698    Earth           Umbra       416           1985.7453698
18 Apr 2023 00:56:18.843    18 Apr 2023 01:29:24.526      1985.6830899    Earth           Umbra       417           1985.6830899
18 Apr 2023 02:33:16.976    18 Apr 2023 03:06:22.598      1985.6219352    Earth           Umbra       418           1985.6219352
18 Apr 2023 04:10:15.080    18 Apr 2023 04:43:20.652      1985.5723953    Earth           Umbra       419           1985.5723953
18 Apr 2023 05:47:13.206    18 Apr 2023 06:20:18.726      1985.5204977    Earth           Umbra       420           1985.5204977
18 Apr 2023 07:24:11.421    18 Apr 2023 07:57:16.873      1985.4526461    Earth           Umbra       421           1985.4526461
18 Apr 2023 09:01:09.710    18 Apr 2023 09:34:15.088      1985.3781334    Earth           Umbra       422           1985.3781334
18 Apr 2023 10:38:07.968    18 Apr 2023 11:11:13.284      1985.3158648    Earth           Umbra       423           1985.3158648
18 Apr 2023 12:15:06.124    18 Apr 2023 12:48:11.397      1985.2722718    Earth           Umbra       424           1985.2722718
18 Apr 2023 13:52:04.222    18 Apr 2023 14:25:09.460      1985.2377789    Earth           Umbra       425           1985.2377789
18 Apr 2023 15:29:02.331    18 Apr 2023 16:02:07.528      1985.1965364    Earth           Umbra       426           1985.1965364
18 Apr 2023 17:06:00.480    18 Apr 2023 17:39:05.622      1985.1414170    Earth           Umbra       427           1985.1414170
18 Apr 2023 18:42:58.677    18 Apr 2023 19:16:03.761      1985.0839707    Earth           Umbra       428           1985.0839707
18 Apr 2023 20:19:56.922    18 Apr 2023 20:53:01.962      1985.0401751    Earth           Umbra       429           1985.0401751
18 Apr 2023 21:56:55.180    18 Apr 2023 22:30:00.185      1985.0047831    Earth           Umbra       430           1985.0047831
18 Apr 2023 23:33:53.402    19 Apr 2023 00:06:58.360      1984.9574095    Earth           Umbra       431           1984.9574095
19 Apr 2023 01:10:51.575    19 Apr 2023 01:43:56.470      1984.8955112    Earth           Umbra       432           1984.8955112
19 Apr 2023 02:47:49.704    19 Apr 2023 03:20:54.542      1984.8377392    Earth           Umbra       433           1984.8377392
19 Apr 2023 04:24:47.809    19 Apr 2023 04:57:52.600      1984.7908450    Earth           Umbra       434           1984.7908450
19 Apr 2023 06:01:45.947    19 Apr 2023 06:34:50.685      1984.7386450    Earth           Umbra       435           1984.7386450
19 Apr 2023 07:38:44.179    19 Apr 2023 08:11:48.849      1984.6703917    Earth           Umbra       436           1984.6703917
19 Apr 2023 09:15:42.474    19 Apr 2023 09:48:47.072      1984.5983627    Earth           Umbra       437           1984.5983627
19 Apr 2023 10:52:40.720    19 Apr 2023 11:25:45.261      1984.5406115    Earth           Umbra       438           1984.5406115
19 Apr 2023 12:29:38.866    19 Apr 2023 13:02:43.367      1984.5008797    Earth           Umbra       439           1984.5008797
19 Apr 2023 14:06:36.964    19 Apr 2023 14:39:41.432      1984.4678848    Earth           Umbra       440           1984.4678848
19 Apr 2023 15:43:35.081    19 Apr 2023 16:16:39.507      1984.4261700    Earth           Umbra       441           1984.4261700
19 Apr 2023 17:20:33.238    19 Apr 2023 17:53:37.609      1984.3712832    Earth           Umbra       442           1984.3712832
19 Apr 2023 18:57:31.445    19 Apr 2023 19:30:35.762      1984.3169819    Earth           Umbra       443           1984.3169819
19 Apr 2023 20:34:29.697    19 Apr 2023 21:07:33.974      1984.2771970    Earth           Umbra       444           1984.2771970
19 Apr 2023 22:11:27.955    19 Apr 2023 22:44:32.197      1984.2428294    Earth           Umbra       445           1984.2428294
19 Apr 2023 23:48:26.172    20 Apr 2023 00:21:30.366      1984.1942564    Earth           Umbra       446           1984.1942564
20 Apr 2023 01:25:24.340    20 Apr 2023 01:58:28.473      1984.1333092    Earth           Umbra       447           1984.1333092
20 Apr 2023 03:02:22.466    20 Apr 2023 03:35:26.545      1984.0791466    Earth           Umbra       448           1984.0791466
20 Apr 2023 04:39:20.573    20 Apr 2023 05:12:24.608      1984.0344960    Earth           Umbra       449           1984.0344960
20 Apr 2023 06:16:18.725    20 Apr 2023 06:49:22.707      1983.9817557    Earth           Umbra       450           1983.9817557
20 Apr 2023 07:53:16.974    20 Apr 2023 08:26:20.888      1983.9134647    Earth           Umbra       451           1983.9134647
20 Apr 2023 09:30:15.272    20 Apr 2023 10:03:19.116      1983.8443973    Earth           Umbra       452           1983.8443973
20 Apr 2023 11:07:13.506    20 Apr 2023 11:40:17.297      1983.7912537    Earth           Umbra       453           1983.7912537

Number of individual events : 453
Number of total events      : 453
Maximum duration (s)        :   2013.8973168
Maximum duration at the 1st eclipse.


